,Unnamed: 0,status,StationID,StationName,StationNameEN,StationAltitude,StationLongitude,StationLatitude,CountyName,Location,StationStartDate,StationEndDate,Notes,OriginalStationID,NewStationID
0,0,現存測站,466900,淡水,TAMSUI,19.0,121.448906,25.164888,新北市,淡水區中正東路42巷6號,1942-10-01,,,,
1,1,現存測站,466920,臺北,TAIPEI,5.3,121.514854,25.037659,臺北市,中正區公園路64號,1896-08-11,,1992/02至1997/08因本局改建，觀測地點移至臺北師院(466921)。2014至2015氣候年報之氣壓計海面上高度應為30.3m(2014/10/25搬遷，6.6m->30.3m)。,,
2,2,現存測站,467610,成功,CHENGGONG,33.5,121.37343,23.097486,臺東縣,成功鎮公民路84號,1940-01-01,,,,
3,3,現存測站,466940,基隆,KEELUNG,26.7,121.74048,25.133314,基隆市,仁愛區港西街6號6樓(海港大樓6樓),1946-10-01,,,,
4,4,現存測站,467300,東吉島,DONGJIDAO,43.0,119.667465,23.25695,澎湖縣,望安鄉東吉村156號,1963-01-01,,,,
5,5,現存測站,466850,五分山雷達站,WUFENSHAN,756.0,121.781204,25.071182,新北市,瑞芳區靜安路四段1巷1號,1988-07-01,,本站只有雷達觀測資料。,,
6,6,現存測站,467620,蘭嶼,LANYU,324.0,121.55834,22.036968,臺東縣,蘭嶼鄉紅頭村2號,1941-11-01,,,,
7,7,現存測站,466990,花蓮,HUALIEN,16.1,121.61327,23.975128,花蓮縣,花蓮市花崗街24號,1910-11-01,,,,
8,8,現存測站,467441,高雄,Kaohsiung,11.8,120.3125,22.7304,高雄市,楠梓區德民路28號,2022-01-24,,,467440,
9,9,現存測站,467540,大武,DAWU,8.1,120.903786,22.355675,臺東縣,大武鄉大武街115號,1940-01-01,,,,
10,10,現存測站,467420,永康,YONGKANG,8.1,120.2367,23.038385,臺南市,永康區鹽行里正南五街520巷88號,1947-06-01,,,,
11,11,現存測站,467660,臺東,TAITUNG,9.0,121.15459,22.75221,臺東縣,臺東市大同路106號,1901-01-01,,,,
12,12,現存測站,467480,嘉義,CHIAYI,26.9,120.43291,23.495926,嘉義市,西區北新里海口寮路56號,1968-09-01,,,,
13,13,現存測站,467080,宜蘭,YILAN,7.2,121.75653,24.763975,宜蘭縣,宜蘭市力行路150號,1935-12-06,,風速儀高度原為14.8M，1999年9月17日8時變更為26.0M,,
14,14,現存測站,466910,鞍部,ANBU,837.6,121.52973,25.182587,臺北市,北投區陽明山竹子湖路111號,1943-01-01,,,,
15,15,現存測站,466930,竹子湖,ZHUZIHU,607.1,121.54455,25.162079,臺北市,北投區陽明山竹子湖路2號,1943-01-01,,,,
16,16,現存測站,466950,彭佳嶼,PENGJIAYU,101.7,122.07974,25.627975,基隆市,中正區彭佳嶼,1936-05-01,,,,
17,17,現存測站,467410,臺南,TAINAN,40.8,120.20477,22.993238,臺南市,中西區公園路21號,1897-01-01,,1998/05停止觀測，2002/01恢復觀測。2002年至2006年氣候年報之風速儀地上高度應為53.7m。,,
18,18,現存測站,467650,日月潭,SUN MOON LAKE,1017.5,120.90805,23.881325,南投縣,魚池鄉水社村中山路270巷14號,1941-11-01,,,,
19,19,現存測站,466881,新北,New Taipei,24.1,121.52,24.9593,新北市,新店區莒光路29號,2023-01-01,,為臺北氣象站板橋站區(站碼466880)遷移之新站，於2023/01/03上午11時取代舊站開始提供觀測資料。,466880,
20,20,現存測站,467530,阿里山,ALISHAN,2413.4,120.81324,23.508207,嘉義縣,阿里山鄉中正村4鄰東阿里山73-1號,1933-04-01,,,,
21,21,現存測站,467571,新竹,HSINCHU,26.9,121.01422,24.827852,新竹縣,竹北市北崙里3鄰光明五街60號,1991-07-01,,,,
22,22,現存測站,467110,金門,KINMEN,47.9,118.28928,24.407307,金門縣,金城鎮金水里西海路一段250號,2004-01-16,,,,
23,23,現存測站,467550,玉山,YUSHAN,3844.8,120.95952,23.487614,南投縣,信義鄉玉山北峰1號,1943-10-01,,,,
24,24,現存測站,467990,馬祖,MATSU,97.8,119.923416,26.16927,連江縣,南竿鄉四維村6鄰88號,2004-01-01,,,,
25,25,現存測站,467350,澎湖,PENGHU,10.7,119.563095,23.565502,澎湖縣,馬公市新興路2號,1896-11-21,,,,
26,26,現存測站,467790,墾丁雷達站,KENTING,42.0,120.80803,21.948235,屏東縣,恆春鎮燈塔路51巷33號,2001-11-01,,本站只有雷達觀測資料。,,
27,27,現存測站,467050,新屋,XINWU,20.6,121.047485,25.006744,桃園市,新屋區東興路二段946號,2013-07-01,,座標及高度於2013/10/09更正。2020/01/01至2020/02/15因施工部分觀測資料缺值。,,
28,28,現存測站,467270,田中,TianZhong,48.6,120.58128,23.873802,彰化縣,田中鎮中潭里4鄰高鐵三路1段167號,2020-04-09,,,,
29,29,現存測站,467490,臺中,TAICHUNG,84.0,120.684074,24.145737,臺中市,北區精武路295號,1897-01-01,,2000年至2006年氣候年報之海拔高度誤植為34m。,,
30,30,現存測站,467590,恆春,HENGCHUN,22.3,120.74634,22.003897,屏東縣,恆春鎮天文路50號,1896-11-20,,,,
31,0,現存測站,C0B050,八斗子,BADOUZI,5.0,121.79167,25.144754,基隆市,中正區漁港1街9號(八斗子安檢所樓頂),2022-03-09,,,,
32,1,現存測站,C0Z220,和平林道,Hepinglindao,589.0,121.65632,24.343922,花蓮縣,秀林鄉臺電公司東部發電廠碧海機組廠區內(進入管制哨約7公里處),2018-03-23,,,,
34,3,現存測站,C0G740,大城,Dacheng,24.0,120.32094,23.852488,彰化縣,大城鄉東城村中平路185號(大城鄉公所),2015-07-03,,,,
35,4,現存測站,C0R730,大坪頂,Dapingding,163.0,120.69355,22.024633,屏東縣,屏東縣恆春鎮大坪頂電信機房旁,2020-04-09,,,,
36,5,現存測站,C0X290,北門,Beimen,10.0,120.12548,23.267773,臺南市,北門區北門里舊埕108號(北門區公所),2016-01-01,,,,
39,8,現存測站,C0B060,暖暖,Nuannuan,83.0,121.7403,25.0957,基隆市,暖暖區東碇路15號（暖暖運動公園內）,2023-01-14,,,,
40,9,現存測站,C0Z210,瑞穗,Ruisui,126.0,121.39021,23.5239,花蓮縣,瑞穗鄉鶴岡村167號(鶴岡國小),2017-12-01,,,,
41,10,現存測站,C0D480,打鐵坑,Datiekeng,223.0,121.15079,24.849665,新竹縣,新埔鎮新北里8鄰大北坑28號旁,2008-01-01,,原(C1D480)站因擴充為氣象站，於2008/1/1升級為(C0D480)站。,C1D480,
43,12,現存測站,C0S830,長濱,Changbin,288.0,121.41197,23.286818,臺東縣,長濱鄉竹湖村移民橋後方山頂三角點旁,2004-06-01,,原(C1S650)站因擴充為氣象站，於2004/6/1升級為(C0S830)站。本站於2019/3/30起進行儀器汰換，於2019/6/7完成驗收。,C1S650,
44,13,現存測站,C0R740,獅子,Shizi,58.0,120.70525,22.201569,屏東縣,屏東縣獅子鄉楓林村2巷26號,2020-04-09,,,,
45,14,現存測站,C0X280,將軍,Jiangjun,22.0,120.13577,23.214998,臺南市,將軍區將貴里58號(將軍國小),2015-07-03,,,,
49,18,現存測站,C0S840,南田,Nantian,22.0,120.889206,22.279724,臺東縣,達仁鄉南田村南田風景區公園對面,2004-06-01,,本站於2019/3/13起進行儀器汰換，於2019/6/7完成驗收。,,
50,19,現存測站,C0R750,四林格山,Silingeshan,551.0,120.80244,22.076988,屏東縣,屏東縣牡丹鄉四林格山遊樂區第2涼亭旁大草原,2020-04-09,,,,
51,20,現存測站,C0Z230,和平,Heping,31.0,121.77007,24.30717,花蓮縣,秀林鄉克來寶段399地號(和平工業港安檢所綠洲分隊),2017-12-01,,,,
52,21,現存測站,C0X050,東河,Donghe,25.0,120.385605,23.296598,臺南市,東山區東河里54號(東河水利工作站),2015-07-03,,原(C1X050)站因擴充為氣象站及移位，於2015/7/1升級為(C0X050)站。,C1X050,
55,24,現存測站,C0G770,福興,Fuxing,15.0,120.43767,24.041288,彰化縣,福興鄉員鹿路二段270號(福興國中),2011-11-01,,,,
56,25,現存測站,C0E590,通霄,Tongxiao,40.0,120.70462,24.471891,苗栗縣,通霄鎮城北里1鄰13號(通霄鎮城中國民小學內),2011-11-01,,原(C1E590)站因擴充為氣象站，於2011/11/1升級為(C0E590)站，原為土城雨量站。,C1E590,
57,26,現存測站,C0R520,崁頂,Kanding,18.0,120.50691,22.514782,屏東縣,崁頂鄉崁頂村興農路29-10號(崁頂消防分隊),2013-08-01,,,,
59,28,現存測站,C0R760,南仁湖,Nanrenhu,336.0,120.86335,22.08468,屏東縣,屏東縣滿州鄉南仁湖步道4K山頂觀測站旁,2020-04-09,,,,
61,30,現存測站,C0X060,下營,Xiaying,19.0,120.25626,23.22695,臺南市,下營區仁里里下營國小附近,2015-07-03,,原(C1X060)站因擴充為氣象站，於2015/7/1升級為(C0X060)站。,C1X060,
63,32,現存測站,C0Z020,明里,Mingli,211.0,121.262344,23.208717,花蓮縣,富里鄉明里村明里社區後方山上,2010-07-01,,原(C1Z020)站因擴充為氣象站，於2010/7/1升級為(C0Z020)站。本站於2017/8/29起進行儀器汰換，於2017/12/1完成驗收。,C1Z020,
65,34,現存測站,C0T960,光復,Guangfu,120.0,121.424965,23.660694,花蓮縣,光復鄉大進村糖廠街19號(台糖公司花蓮光復糖廠內),1996-01-01,,本站於2017/5/3起進行儀器汰換，於2017/6/3完成驗收。,,
66,35,現存測站,C0G780,秀水,Xiushui,27.0,120.50387,24.03405,彰化縣,秀水鄉安東村中山路257號(秀水國小),2011-11-01,,,,
67,36,現存測站,C0V900,汕尾,Shanwei,6.0,120.4151,22.4782,高雄市,林園區,2022-12-26,,,,
68,37,現存測站,C0R770,保力,Baoli,93.0,120.764114,22.071121,屏東縣,屏東縣車城鄉保力村竹社路5號,2020-04-09,,,,
69,38,現存測站,C0Z270,蕃薯寮,Fanshuliao,343.0,121.54011,23.73835,花蓮縣,壽豐鄉水璉村蕃薯寮附近山區道路旁(牛山段607地號內),2017-06-03,,,,
70,39,現存測站,C0Z250,瑞穗林道,Ruisuilindao,1124.0,121.30688,23.49284,花蓮縣,卓溪鄉瑞穗林道約7.5K瑞欣礦區下方空地,2017-12-01,,,,
73,42,現存測站,C0R540,佳冬,Jiadong,17.0,120.552376,22.419456,屏東縣,佳冬鄉佳昌路2號(佳冬鄉公所),2013-08-01,,,,
74,43,現存測站,C0R780,滿州,Manzhou,72.0,120.83989,22.024403,屏東縣,屏東縣滿州鄉文化路32號,2020-04-09,,,,
75,44,現存測站,C0X080,佳里,Jiali,2.0,120.14509,23.173038,臺南市,佳里區西方之埔尾，近七股區之篤加,1993-03-01,,本站於2015/5/11起進行儀器汰換，並於2015/7/1完成驗收。,,
77,46,現存測站,C0H890,埔里,Puli,440.0,120.95242,23.97217,南投縣,埔里鎮大城里大城路169號(南投縣立大成國民中學內),2016-01-01,,原大肚城(C1H890)站因擴充為氣象站，於2015/9/4升級為(C0H890)站，站名更變為埔里。,C1H890,
78,47,現存測站,C0FA00,烏石坑,Shinmei,983.0,120.94762,24.2735,臺中市,和平區東崎路2段烏石巷109號,2020-10-31,,,,
79,48,現存測站,C0R550,新埤,Xinpi,38.0,120.58289,22.467947,屏東縣,新埤鄉民眾路103號(新埤消防分隊),2013-08-01,,,,
80,49,現存測站,C0R790,九棚,Jiupeng,111.0,120.88928,22.14195,屏東縣,屏東縣牡丹鄉九棚中科院基地,2020-04-09,,,,
81,50,現存測站,C0Z050,佳心,Jiaxin,824.0,121.21316,23.34567,花蓮縣,卓溪鄉佳心(玉山國家公園內，距花蓮卓溪鄉南安遊客步行2.5時之日據時代派出所舊址),1997-07-01,,本站於2017/9/3起進行儀器汰換，於2017/12/1完成驗收。,,
83,52,現存測站,C0Z290,赤柯山,Chikeshan,946.0,121.38293,23.36893,花蓮縣,玉里鎮赤柯山段338地號,2017-12-01,,,,
86,55,現存測站,C0AI00,五股,Wugu,188.0,121.42728,25.07445,新北市,五股區外寮路12號,2018-07-10,,,,
87,56,現存測站,C0R320,車城,Checheng,7.0,120.71625,22.0744,屏東縣,車城鄉福興村中山路66號(車城國小),2019-11-28,,因擴充氣象站，原氣象站(C1R320)，於2019/11/28升級為氣象站，變更站碼為(C0R320)。,C1R320,
88,57,現存測站,C0R560,新園,Xinyuan,22.0,120.461555,22.5434,屏東縣,新園鄉仙吉村店口路116號(新園消防分隊),2013-08-01,,,,
89,58,現存測站,C0S890,關山,Guanshan,238.0,121.17502,23.0395,臺東縣,關山鎮親水公園內,2016-01-01,,本站於2019/3/21起進行儀器汰換，於2019/6/7完成驗收。,,
90,59,現存測站,C0FA10,松柏,SONGBAI,22.0,120.617485,24.429115,臺中市,大甲區順帆路233號(松柏安檢所樓頂),2022-03-09,,,,
91,60,現存測站,C0Z280,德武,Dewu,224.0,121.41071,23.47426,花蓮縣,玉里鎮德武里附近山區道路旁(德武段680地號內),2017-12-01,,,,
92,61,現存測站,C0V260,月眉,Yuemei,126.0,120.539856,22.971003,高雄市,杉林區月眉里山仙路1號月眉農場,2013-08-01,,原(C1V260)站因擴充為氣象站，於2013/8/1升級為(C0V260)站。,C1V260,
93,62,現存測站,C0F9T0,西屯,Xitun,111.0,120.64127,24.179495,臺中市,西屯區西屯路二段300號(西屯國小),2011-11-01,,,,
94,63,現存測站,C0G900,線西,xianxi,20.0,120.443535,24.143358,彰化縣,線西鄉慶福路300號（彰濱工業區線西服務大樓內),2019-11-22,,,,
95,64,現存測站,C0X200,左鎮,Zuozhen,61.0,120.40852,23.056759,臺南市,左鎮區中正里171號之4(左鎮區公所),2013-04-18,,2016/10/18因公所施工暫時無法提供資料，2017/1/24完工。,,
96,65,現存測站,C0W110,東莒,Dongju,16.0,119.98069,25.9652,連江縣,莒光鄉福正村1號(福正抽水機房，莒光遊客中心後方),2016-07-01,,,,
97,66,現存測站,C0O860,大內,Danei,38.0,120.36083,23.11885,臺南市,大內區74201大內里63號(大內國民小學),2013-08-01,,原(C1O860)站因擴充為氣象站，於2013/8/1升級為(C0O860)站。,C1O860,
98,67,現存測站,C0M680,太保,Taibao,37.0,120.33145,23.455063,嘉義縣,太保市太保里31號(太保市圖書館),2015-07-03,,,,
99,68,現存測站,C0I080,信義,Xinyi,536.0,120.851036,23.689693,南投縣,信義鄉自強村綠美巷(內茅埔營林區23林班地),2016-01-01,,原(C1I080)站因擴充為氣象站，於2015/9/22升級為(C0I080)站。,C1I080,
101,70,現存測站,C0F9U0,南屯,Nantun,74.0,120.63797,24.137007,臺中市,南屯區黎明路一段968號(南屯國小),2011-11-01,,,,
102,71,現存測站,C0V490,新興,Sinsing,20.0,120.298805,22.627422,高雄市,新興區大同一路231號(大同國小內5樓頂),2009-12-01,,本站於2013/9/12起進行儀器汰換，並於2013/12/1完成驗收。,,
103,72,現存測站,C0G910,花壇,Huatan,42.0,120.54946,24.032076,彰化縣,彰化縣花壇鄉彰員路2段580號（花壇國中內）,2019-12-20,,,,
104,73,現存測站,C0V250,甲仙,Jiasian,298.0,120.59176,23.080107,高雄市,甲仙區(甲仙國民中學操場後方小山丘上),1992-05-01,,本站於2013/3/13進行儀器汰換，並於2013/4/18完成驗收。,,
105,74,現存測站,C0A9C0,天母,Tianmu,35.0,121.53717,25.117495,臺北市,士林區天母東路116號(三玉國小內),1997-12-01,,,,
106,75,現存測站,C0E730,頭份,Toufen,26.0,120.91221,24.688248,苗栗縣,頭份市中正路219號(苗栗縣頭份鎮頭份國小校園內),2007-12-01,,,,
108,77,現存測站,C0R900,竹坑,Jhukeng,30.0,120.7022,22.1385,屏東縣,車城鄉海口村尖山46號,2022-12-26,,,,
109,78,現存測站,C0I090,鳳凰,Fonghuang,910.0,120.787346,23.72808,南投縣,鹿谷鄉鳳凰鳥園旁,1992-07-01,,,,
110,79,現存測站,C0M690,水上,Shuishang,33.0,120.38891,23.419733,嘉義縣,水上鄉三鎮村三鎮路119號(水上消防分隊),2015-07-03,,,,
111,80,現存測站,C0D650,湖口,Hukou,97.0,121.043625,24.904795,新竹縣,湖口鄉信勢村三鄰成功路109號(湖口消防分隊),2013-10-01,,,,
112,81,現存測站,C0E740,造橋,Zaoqiao,27.0,120.86478,24.637056,苗栗縣,造橋鄉造橋村14鄰3號(造橋國小),2011-11-01,,,,
113,82,現存測站,C0F9V0,新社,Xinshe,525.0,120.8158,24.200172,臺中市,新社區大南里興中街46號(農委會種苗改良繁殖場),2011-11-01,,,,
114,83,現存測站,C0X220,學甲,Xuejia,26.0,120.18219,23.230368,臺南市,學甲區華宗路313號(學甲區公所),2015-07-03,,,,
115,84,現存測站,C0W130,花嶼,Huayu,18.0,119.32276,23.40007,澎湖縣,望安鄉花嶼村2號(花嶼國民小學),2016-07-01,,,,
116,85,現存測站,C0G920,永靖,Yongjing ,42.0,120.54753,23.924704,彰化縣,永靖鄉瑚璉路230號（永靖鄉公所樓頂）,2022-01-04,,,,
117,86,現存測站,C0R910,下寮,Sialiao,8.0,120.5548,22.3929,屏東縣,枋寮鄉德聖路47號,2022-12-26,,,,
118,87,現存測站,C0K280,四湖,Sihu,23.0,120.22713,23.630413,雲林縣,四湖鄉湖西村中正路766號(四湖國民中學內),1993-03-01,,本站於2015/7/18起進行儀器汰換，並於2015/12/31完成驗收。,,
119,88,現存測站,C0D660,新竹市東區,Dongqu Hsinshu City,65.0,120.98694,24.798681,新竹市,東區光復路二段321號（工研院光復院區6館）,2014-11-01,,,,
120,89,現存測站,C0E750,苗栗,Miaoli,62.0,120.82458,24.56457,苗栗縣,苗栗市中正路241號(建功國小),2011-11-01,,,,
121,90,現存測站,C0W120,西嶼,Xiyu,58.0,119.46844,23.5626,澎湖縣,西嶼鄉195號(西嶼燈塔西方),2016-07-01,,,,
122,91,現存測站,C0X210,白河,Baihe,38.0,120.41443,23.347466,臺南市,白河區中山路6號(白河消防分隊),2015-07-03,,,,
123,92,現存測站,C0R920,塭仔,Wunzai,19.0,120.5197,22.4169,屏東縣,佳冬鄉焰溫村炯興路51號,2022-12-26,,,,
124,93,現存測站,C0K291,宜梧,Yiwu,8.0,120.16933,23.536282,雲林縣,口湖鄉湖口村170號央廣口湖分台內(憲兵排樓頂),2010-09-27,,原(C0K290)站因觀測位置不佳，於2010/9/27更變為(C0K291)站。於2015/7/1遷移至原址鄰近旁建物樓頂並進行儀器汰換。,C0K290,
127,96,現存測站,C0D670,海天一線,HAITIANYISIAN,23.0,120.91444,24.831985,新竹市,北區(海天一線看海公園),2022-03-09,,,,
128,97,現存測站,C0F9X0,大雅(中科園區),Daya,166.0,120.62445,24.21528,臺中市,大雅區中部科學工業園區臺中園區(汙水處理機房樓頂),2015-08-21,,,,
129,98,現存測站,C0G940,竹塘,Zhutang,21.0,120.386765,23.848253,彰化縣,竹塘鄉東陽路二段123號（長安國小校園內）,2022-01-22,,,,
130,99,現存測站,C0D430,峨眉,Emei,87.0,121.01719,24.6905,新竹縣,峨眉鄉31541峨眉村峨眉街54號(峨眉國中校園內),2011-12-01,,原(C1D430)站因擴充為氣象站，於2011/12/1升級為(C0D430)站。,C1D430,
131,100,現存測站,C0E520,大湖,Dahu,320.0,120.87087,24.41494,苗栗縣,大湖鄉大寮村5鄰竹高屋34-1號附近,2011-11-01,,原(C1E520)站因擴充為氣象站，於2011/11/1升級為(C0E520)站。,C1E520,
132,101,現存測站,C0X240,關子嶺,Guanziling,394.0,120.508026,23.33117,臺南市,白河區關嶺里94-3號(仙草國小關嶺分校),2015-07-03,,於2015/12/8短距離移位。本站於2015/11/23起進行儀器汰換，並於2015/12/8完成驗收。,,
133,102,現存測站,C0F850,東勢,Dongshi,379.0,120.833046,24.246428,臺中市,東勢區東關路647號(東勢林區管理處雙崎工作站內),2011-11-01,,原(C1F850)站因擴充為氣象站，於2011/11/1升級為(C0F850)站。,C1F850,
134,103,現存測站,C0W150,金寧,Jinning,42.0,118.32899,24.457703,金門縣,金寧鄉頂林路315號(金門縣消防局),2016-10-05,,,,
135,104,現存測站,C0B010,七堵,Qidu,38.0,121.71713,25.094818,基隆市,七堵區東新街22號(基隆商工樓頂),2018-06-23,,,,
137,106,現存測站,C0R930,萬丹,Wandan,18.0,120.4851,22.5885,屏東縣,萬丹鄉和平西路149號（萬丹消防分隊樓頂）,2023-03-14,,原(C0R510)站因移位，於2023/03/14變更為(C0R930)站。,C0R510,
139,108,現存測站,C0A9F0,內湖,Neihu,35.0,121.57545,25.079422,臺北市,內湖區內湖路一段520號(內湖高工內),1997-12-01,,,,
141,110,現存測站,C0G950,防潮門,Fangchaomen,23.0,120.4871,24.1835,彰化縣,伸港鄉全興村西全路167巷111之1號,2022-12-26,,,,
142,111,現存測站,C0W140,金沙,Jinsha ,21.0,118.408775,24.488293,金門縣,金沙鎮環島北路四段465號(金門縣自來水廠榮湖淨水場),2016-10-05,,,,
143,112,現存測站,C0F861,梨山,Lishan,2215.0,121.24367,24.247522,臺中市,和平區梨山里福壽路29號（福壽山農場）,2004-07-01,,,C0F860,
144,113,現存測站,C0X230,鹽水,Yanshui,29.0,120.24764,23.272621,臺南市,鹽水區竹埔里1號(竹埔派出所),2015-07-03,,,,
145,114,現存測站,C0R700,枋山,Fangshan,19.0,120.66109,22.246843,屏東縣,枋山鄉中山路三段52號(加祿國小),2019-11-28,,,,
146,115,現存測站,C0B020,基隆嶼,Keelung Islet,86.0,121.78391,25.19141,基隆市,中正區基隆嶼,2018-10-26,,,,
147,116,現存測站,C0C590,觀音,Guanyin,72.0,121.15332,25.027073,桃園市,觀音區廣福里10-42號(逸福農場),2007-10-01,,,,
148,117,現存測站,C0F9Y0,桃山,Taoshan,3313.0,121.30381,24.43274,臺中市,和平區(位於往桃山山屋叉路解說牌附近),2016-07-15,,,,
149,118,現存測站,C0D680,香山濕地,SIANGSHAN WETLAND,24.0,120.914986,24.78358,新竹市,香山區西濱路三段500巷17號,2022-03-09,,,,
150,119,現存測站,C0R940,加祿堂,Jialutang,24.0,120.6217,22.3363,屏東縣,枋山鄉加祿村190之300號,2022-12-26,,原(C0E940)站因縣市代碼不符，於2023/01/04重新編碼為為(C0R940)站。,C0E940,
153,122,現存測站,C0E540,後龍,Houlong,32.0,120.783936,24.60649,苗栗縣,後龍鎮後龍溪橋旁高地,2011-11-01,,原(C1E540)站因擴充為氣象站，於2011/11/1升級為(C0E540)站。,C1E540,
154,123,現存測站,C0X260,後壁,Houbi,39.0,120.36233,23.366358,臺南市,後壁區後壁里129號(後壁圖書館),2015-07-03,,,,
155,124,現存測站,C0G720,溪州,Xizhou,50.0,120.49909,23.85159,彰化縣,溪州鄉溪下路四段560號(溪州鄉公所),2015-07-03,,,,
157,126,現存測站,C0G960,福寶,Fubao,5.0,120.3814,24.0443,彰化縣,福興鄉,2022-12-26,,,,
159,128,現存測站,C0Z200,萬榮,Wanrong,153.0,121.420105,23.709219,花蓮縣,鳳林鎮長橋里長橋路2號(長橋國小),2017-06-03,,,,
160,129,現存測站,C0D690,外湖,WAIHU,20.0,120.96871,24.917734,新竹縣,新豐鄉新豐段00369-000建號(外湖守望哨樓頂),2022-03-09,,,,
161,130,現存測站,C0E780,銅鑼,Tongluo,160.0,120.790855,24.489681,苗栗縣,銅鑼鄉福興村文化街1號(銅鑼國小),2011-11-01,,,,
162,131,現存測站,C0R710,龍磐,Longpan,117.0,120.83894,21.931671,屏東縣,屏東縣恆春助航台(NDB歸航台),2020-04-09,,,,
163,132,現存測站,C0F9Z0,雪山東峰,Xueshandongfeng,3193.0,121.26868,24.388792,臺中市,和平區(位於雪山東峰直升機停機坪東南東方60公尺處),2016-07-15,,,,
165,134,現存測站,C0T900,西林,Xilin,160.0,121.44146,23.8119,花蓮縣,萬榮鄉西林路8鄰114號(西林國民小學運動場旁),2010-07-01,,原(C1T900)站因擴充為氣象站，於2010/7/1升級為(C0T900)站，2017/4/14起進行儀器汰換，於2017/6/3完成驗收。,C1T900,
167,136,現存測站,C0B040,大武崙,DAWULUN,15.0,121.70699,25.166676,基隆市,安樂區武聖街144弄50號(大武崙安檢所樓頂),2022-03-09,,,,
168,137,現存測站,C0G730,二林,Erlin,27.0,120.37608,23.903324,彰化縣,二林鎮仁愛路200號(二林消防分隊),2015-07-03,,原中西(C1G700)站因移位及擴充為氣象站，於2015/7/1升級為(C0G730)站，站名更變為二林。,C1G700,
169,138,現存測站,C0W160,烏坵,Wuqiu,49.0,119.44956,24.9944,金門縣,烏坵鄉,2016-10-05,,,,
170,139,現存測站,C0E550,明德,Mingde,84.0,120.885414,24.583487,苗栗縣,頭屋鄉明德水庫水利工作站屋頂上,2011-11-01,,原(C1E550)站因擴充為氣象站，於2011/11/1升級為(C0E550)站。,C1E550,
171,140,現存測站,C0G970,三豐,Sanfong,19.0,120.2895,23.882,彰化縣,大城鄉三豐村和平路30之1號,2022-12-26,,,,
172,141,現存測站,C0X250,新營,Xinying,33.0,120.31668,23.31069,臺南市,新營區中正路30號(南瀛親子館),2015-07-03,,,,
173,142,現存測站,C0E791,卓蘭,Zhuolan,366.0,120.8244,24.3126,苗栗縣,卓蘭鎮中山路125-1號(卓蘭鎮圖書館樓頂),2022-09-21,,原(C0E790)站因移位，於2022/9/21變更為(C0E791)站。,C0E790,
174,143,現存測站,C0S810,東河,Donghe,65.0,121.303986,22.972672,臺東縣,東河鄉北東河17鄰26號(東河國民小學操場旁),2004-06-01,,原(C1S640)站因擴充為氣象站，於2004/6/1升級為(C0S810)站。本站於2019/3/31起進行儀器汰換，於2019/6/7完成驗收。,C1S640,
175,144,現存測站,C0R720,旭海,Xuhai,214.0,120.88761,22.205402,屏東縣,牡丹鄉旭海大草原步道旁,2019-11-28,,,,
176,145,現存測站,C0T9B0,水源,Shuiyuan,558.0,121.53717,23.991861,花蓮縣,秀林鄉原林務局水源段的苗圃內,2000-10-01,,本站於2017/3/27起進行儀器汰換，於2017/6/3完成驗收。,,
177,146,現存測站,C0SA40,瑞和,Ruihe,200.0,121.1567,22.974361,臺東縣,鹿野鄉瑞和村瑞景路3段1號(瑞源國中),2019-07-05,,,,
179,148,現存測站,C0A640,石碇,Shihding,241.0,121.66292,24.993969,新北市,石碇區湳窟34號附近,2009-12-01,,原(C1A640)站因擴充為氣象站，於2009/12/1升級為(C0A640)站。,C1A640,
180,149,現存測站,C0M720,番路,Fanlu,225.0,120.55415,23.464657,嘉義縣,番路鄉下坑村蔡公店101號(番路鄉公所),2015-07-03,,,,
181,150,現存測站,C0I360,水里,Shuili,300.0,120.84979,23.812553,南投縣,水里鄉中山路一段515號(玉山國家公園管理處),2016-01-01,,,,
182,151,現存測站,C0O900,善化,Shanhua,9.0,120.29722,23.112883,臺南市,善化區益民寮60號(亞洲蔬菜研究發展中心內),1988-12-01,,本站於 2013/5/11 進行儀器汰換，並於2013/8/1完成驗收。,,
184,153,現存測站,C0A880,福隆,Fulong,6.0,121.942085,25.017841,新北市,貢寮區東北角海岸國家風景管理處之福隆遊客中心後方,1995-01-01,,,,
185,154,現存測站,C0R170,屏東,Pingdong,26.0,120.49407,22.660269,屏東縣,屏東市復興路245號(台灣糖業公司屏東區處場區內),2013-12-01,,原(C1R170)站於2013/12/1變更為(C0R170)站。,C1R170,
186,155,現存測站,C0T9A0,月眉山,Yuemeishan,498.0,121.539825,23.809929,花蓮縣,壽豐鄉月眉山旁的小山丘上(過米棧大橋往山上水璉方向至四號橋左轉之山上),2000-10-01,,本站於2017/5/11起進行儀器汰換，於2017/6/3完成驗收。,,
187,156,現存測站,C0V770,大社,Dashe,26.0,120.34664,22.730307,高雄市,大社區自強街1號(大社區公所),2013-12-01,,,,
188,157,現存測站,C0M730,嘉義市東區,Dongqu Chiayi City,40.0,120.46053,23.457672,嘉義市,親水路123 號(第五河川局水情中心),2015-07-03,,,,
189,158,現存測站,C0K550,蔦松,Niaosong,15.0,120.22974,23.514318,雲林縣,水林鄉松中村蔦松路213號(蔦松國小),2016-01-01,,,,
190,159,現存測站,C0V530,阿蓮,Alian,34.0,120.32751,22.883207,高雄市,阿蓮區阿蓮里民生路94號(阿蓮區公所),2013-08-01,,原(C1V530)站因擴充為氣象站，於2013/8/1升級為(C0V530)站。,C1V530,
192,161,現存測站,C0A650,火燒寮,Huoshaoliao,287.0,121.74289,25.00272,新北市,平溪區東勢里,2009-12-01,,原(C1A650)站因擴充為氣象站，於2009/12/1升級為(C0A650)站。,C1A650,
193,162,現存測站,C0I370,魚池,Yuchi,671.0,120.94135,23.895702,南投縣,魚池鄉東池村魚池街194號(魚池鄉衛生所),2016-01-01,,,,
194,163,現存測站,C0A890,雙溪,Shuangsi,40.0,121.86424,25.036003,新北市,雙溪區雙溪里社區活動中心旁花圃內,1995-01-01,,,,
197,166,現存測站,C0K560,棋山,Qishan,117.0,120.60342,23.68645,雲林縣,古坑鄉棋盤村棋山49號(棋山國小),2016-01-01,,,,
198,167,現存測站,C0SA60,知本（水試所）,Zhiben (FRI),11.0,121.08276,22.702394,臺東縣,臺東縣臺東市知本路2段291巷299號,2020-04-09,,,,
199,168,現存測站,C0A660,瑞芳,Rueifang,97.0,121.80115,25.113169,新北市,瑞芳區22403龍山里逢甲路360號(義方國民小學校園內),2009-12-01,,原(C1A660)站因擴充為氣象站，於2009/12/1升級為(C0A660)站。,C1A660,
200,169,現存測站,C0M740,六腳,Liujiao,15.0,120.29063,23.49287,嘉義縣,六腳鄉蒜頭村73-2號(六腳消防分隊),2015-07-03,,,,
201,170,現存測站,C0I380,集集,Jiji,258.0,120.80147,23.828205,南投縣,集集鎮民生東路1號(農委會特有生物研究保育中心),2016-01-01,,,,
202,171,現存測站,C0UA10,鴛鴦湖,Yuanyanghu,1711.0,121.41223,24.59027,宜蘭縣,大同鄉100線林道約15K(太平山事業區32林班內，鴛鴦湖工作站旁空地),2018-03-23,,,,
203,172,現存測站,C0R190,赤山,Chishan,32.0,120.6143,22.592333,屏東縣,萬巒鄉建興路40號（赤山國小）,2013-12-01,,原(C1R190)站因觀測環境不佳，於2013/12/1遷移至(C0R190)站。,C1R190,
204,173,現存測站,C0T9E0,大坑,Dakeng,415.0,121.58198,23.880629,花蓮縣,壽豐鄉10鄰山嶺80之1號(中華電信公司賀田山機房)旁,2004-06-01,,本站於2017/4/20起進行儀器汰換，於2017/6/3完成驗收。,,
205,174,現存測站,C0V790,萬山,Wanshan,410.0,120.68806,22.905945,高雄市,茂林區萬山段710地號,2013-12-01,,,,
206,175,現存測站,C0K330,虎尾,Huwei,38.0,120.44204,23.719183,雲林縣,虎尾鎮林森路一段64號(中正國民小學內),1993-03-01,,本站於2015/5/27起進行儀器汰換，並於2015/7/1完成驗收。,,
207,176,現存測站,C0O930,玉井,Yujing,69.0,120.46055,23.126041,臺南市,玉井區台灣糖業公司玉井糖廠,1988-12-01,,,,
208,177,現存測站,C0V310,美濃,Meinong,46.0,120.51915,22.898743,高雄市,美濃區福安里中山路二段204巷65號(美濃區福安國小後方),1992-05-01,,本站於 2013/6/15 進行儀器汰換，並於2013/8/1完成驗收。,,
210,179,現存測站,C0M750,布袋,Budai,10.0,120.167786,23.380878,嘉義縣,布袋鎮龍江里2-2號(布袋消防分隊),2015-07-03,,,,
211,180,現存測站,C0I390,仁愛,Ren'ai,1184.0,121.13221,24.022121,南投縣,仁愛鄉仁和路50號(台電公司仁愛服務所),2016-01-01,,,,
212,181,現存測站,C0UA00,土場,Tuchang,392.0,121.49533,24.576532,宜蘭縣,大同鄉土場,2018-03-23,,,,
213,182,現存測站,C0AG80,中和,Zhonghe,48.0,121.49179,24.991623,新北市,中和區錦和路163號(錦和高中內),2021-10-18,,,,
214,183,現存測站,C0T9D0,和中,Hezhong,8.0,121.74103,24.26676,花蓮縣,秀林鄉秀林村62號(和平國小和中分校校園內),2004-06-01,,本站於2017/10/12進行儀器汰換及短距離移位，於2017/12/1完成驗收。,,
215,184,現存測站,C0C620,蘆竹,Luzhu,19.0,121.26577,25.084274,桃園市,蘆竹區坑口里14鄰旁,2011-12-01,,原(C1C620)站因擴充為氣象站，於2011/12/1升級為(C0C620)站。,C1C620,
217,186,現存測站,C0SA80,土坂,Tuban,136.0,120.88757,22.453108,臺東縣,達仁鄉土坂村1鄰10號(土坂國民小學操場旁),2019-06-07,,原(C1S620)站因擴充為氣象站，於2019/3/23升級為(C0SA80)站。,C1S620,
218,187,現存測站,C0M760,民雄,Minxiong,40.0,120.42846,23.551754,嘉義縣,民雄鄉文化路7號(民雄鄉公所),2015-07-03,,,,
219,188,現存測站,C0M520,東後寮,Donghouliao,15.0,120.24806,23.369907,嘉義縣,義竹鄉東光村7號(台糖東後寮農場),2015-07-03,,原(C1M520)站因擴充為氣象站，於2015/7/1升級為(C0M520)站。,C1M520,
220,189,現存測站,C0K580,高鐵雲林,THSR Yunlin,26.0,120.417946,23.737455,雲林縣,虎尾鎮站前東路301號(高鐵雲林站外),2017-08-01,,,,
221,190,現存測站,C0UA30,白嶺,Bailing,1397.0,121.51903,24.527819,宜蘭縣,大同鄉太平山白嶺苗圃內,2018-03-23,,,,
222,191,現存測站,C0D700,關西,Guanxi,155.0,121.1732,24.7977,新竹縣,關西鎮北斗里北門口41號(關西國中校園內),2023-02-19,,原(C0D390)站因移位，於2023/02/19變更為(C0D700)站。,C0D390,
224,193,現存測站,C0T9G0,鳳林山,Fenglinshan,605.0,121.42013,23.73527,花蓮縣,鳳林鎮,2004-06-01,,本站於2017/4/6起進行儀器汰換，於2017/6/3完成驗收。,,
225,194,現存測站,C0C630,大溪,Dasi,209.0,121.26555,24.882853,桃園市,大溪區員林路2段450號(員樹林國小校園內),2007-12-01,,,,
226,195,現存測站,C0E810,西湖,Xihu,53.0,120.7485,24.562946,苗栗縣,西湖鄉二湖村2鄰22號(僑文國小),2011-11-01,,,,
227,196,現存測站,C0M770,嘉義梅山,Meishan Chiayi County,164.0,120.55559,23.585398,嘉義縣,梅山鄉中山路282號(梅山鄉公所),2015-07-03,,,,
228,197,現存測站,C0SA90,達仁林場,Darenlinchang,497.0,120.823975,22.264347,臺東縣,臺東縣達仁鄉臺東達五號農路4K處,2020-04-09,,,,
229,198,現存測站,C0M530,奮起湖,Fenqihu,1385.0,120.69925,23.493902,嘉義縣,竹崎鄉阿里山事業區148林班地(中興苗圃內),1993-03-01,,本站於2015/7/7起進行儀器汰換，並於2015/12/31完成驗收。,,
231,200,現存測站,C0O950,安南,Annan,4.0,120.14486,23.076694,臺南市,安南區公學路6段589號(學東國民小學內),2013-08-01,,原(C1O950)站因擴充為氣象站，於2013/8/1升級為(C0O950)站。,C1O950,
232,201,現存測站,C0K590,雲林東勢,"Dongshi, Yunlin County",18.0,120.25572,23.674192,雲林縣,東勢鄉東榮路29巷1號(東勢鄉圖書館樓頂),2022-03-22,,,,
233,202,現存測站,C0UA20,多加屯,Duojiatun,2619.0,121.37319,24.368614,宜蘭縣,大同鄉南湖大山指標8.4K處(多加屯避難山屋附近),2017-12-28,,,,
234,203,現存測站,C0T9F0,水璉,Shuilian,251.0,121.54251,23.79713,花蓮縣,壽豐鄉水璉村,2004-06-01,,本站於2017/4/27起進行儀器汰換，於2017/6/3完成驗收。,,
235,204,現存測站,C0V360,內門,Neimen,94.0,120.46677,22.975481,高雄市,內門區木柵里木柵3號（木柵國民小學）,2013-12-01,,原(C1V360)站因擴充為氣象站，於2013/12/1升級為(C0V360)站。,C1V360,
236,205,現存測站,C0E820,獅潭,Shitan,220.0,120.920044,24.539133,苗栗縣,獅潭鄉新店村11鄰103-2號(獅潭鄉公所圖書館樓頂),2011-12-01,,,,
237,206,現存測站,C0X300,鹿寮,Luliao,70.0,120.47733,23.386047,臺南市,白河區崎內里12號(鹿寮水庫),2016-01-01,,,,
238,207,現存測站,C0O960,崎頂,Qiding,112.0,120.369316,22.959547,臺南市,龍崎區中坑里5鄰13號,2013-04-18,,原(C1O960)站因擴充為氣象站，於2013/4/18升級為(C0O960)站。,C1O960,
240,209,現存測站,C0M780,鹿草,Lucao,30.0,120.30835,23.41134,嘉義縣,鹿草鄉西井村287號(鹿草鄉公所),2015-07-03,,,,
241,210,現存測站,C0UA50,西帽山,Ximaoshan,808.0,121.80263,24.55536,宜蘭縣,南澳鄉台泥大白山運石道附近山區(羅東事業區96林班內),2018-05-09,,,,
243,212,現存測站,C0T9I0,豐濱,Fengbin,152.0,121.51481,23.583897,花蓮縣,豐濱鄉豐濱村,2004-06-01,,本站於2017/4/25起進行儀器汰換，於2017/6/3完成驗收。,,
244,213,現存測站,C0C650,平鎮,Pingjhen,208.0,121.21464,24.897503,桃園市,平鎮區中豐路山頂段375巷45號(山豐國民小學校園內),2007-12-01,,,,
245,214,現存測站,C0E830,苑裡,YUANLI,37.0,120.65305,24.439714,苗栗縣,苑裡鎮信義路1號(苑裡鎮公所),2013-12-01,,,,
246,215,現存測站,C0V350,溪埔,XIPU,36.0,120.4468,22.738579,高雄市,大樹區溪埔里之台29線近83K處,2013-12-01,,原(C1V350)站因擴充為氣象站，於2013/12/1升級為(C0V350)站。,C1V350,
247,216,現存測站,C0O970,虎頭埤,Hutoupi,71.0,120.34788,23.021376,臺南市,新化區口埤18號(新化分場),2013-08-01,,原(C1O970)站因擴充為氣象站，於2013/8/1升級為(C0O970)站。,C1O970,
249,218,現存測站,C0M790,新港,Xingang,15.0,120.345726,23.553268,嘉義縣,新港鄉公園路28號(新港消防分隊),2015-07-03,,,,
250,219,現存測站,C0UA40,西德山,Xideshan,1121.0,121.75261,24.560646,宜蘭縣,南澳鄉安平坑林道(力霸產業道路)附近山區(南澳事業區28林班內),2018-05-09,,,,
251,220,現存測站,C0T9H0,加路蘭山,Jialulanshan,725.0,121.5274,23.682947,花蓮縣,豐濱鄉臨海段776-4號,2004-06-01,,本站於2017/4/19起進行儀器汰換，於2017/6/3完成驗收。,,
252,221,現存測站,C0AC40,大屯山,Datunshan,1079.0,121.52241,25.175674,臺北市,北投區湖田段461-6地號(民航局大屯山助航臺),2006-01-01,,,,
253,222,現存測站,C0AI10,屈尺,Quchi,76.0,121.54475,24.92184,新北市,新店區屈尺路83號(衛福部北區老人之家),2018-11-20,,,C0A580,
254,223,現存測站,C0I520,玉山風口,Yushanfengkou,3860.0,120.95599,23.47049,南投縣,信義鄉(玉山主峰往北峰叉路空地附近),2016-07-15,,,,
255,224,現存測站,C0V700,三民,Sanmin,24.0,120.31123,22.645018,高雄市,三民區十全一路88號(十全消防分隊),2013-12-01,,,,
256,225,現存測站,C0S660,下馬,Xiama,794.0,121.07031,23.150427,臺東縣,海端鄉廢棄下馬派出所旁,2019-06-07,,原(C1S660)站因擴充為氣象站，於2019/6/7升級為(C0S660)站。,C1S660,
258,227,現存測站,C0R570,麟洛,Linluo,37.0,120.52719,22.65078,屏東縣,麟洛鄉中山路158號(麟洛鄉公所),2013-12-01,,,,
260,229,現存測站,C0Z070,舞鶴,Wuhe,247.0,121.37407,23.46811,花蓮縣,瑞穗鄉舞鶴村加納納山三角點旁,1997-07-01,,本站於2017/6/21起進行儀器汰換，於2017/12/1完成驗收。,,
262,231,現存測站,C0FA20,溫寮,WUNLIAO,26.0,120.58312,24.372177,臺中市,大安區中山北路1巷67號(臺中大安區里民活動中心樓頂),2022-03-09,,,,
263,232,現存測站,C0AI20,白沙灣,Baishawan,25.0,121.51906,25.283129,新北市,石門區德茂里下員坑33-6號（白沙灣遊客中心樓頂）,2018-11-28,,,,
265,234,現存測站,C0I530,小奇萊,Xiaoqilai,3014.0,121.295715,24.131763,南投縣,仁愛鄉小奇萊步道指標1.5K處附近,2017-12-28,,,,
266,235,現存測站,C0U600,礁溪,Chiaoshi,10.0,121.76561,24.81754,宜蘭縣,礁溪鄉礁溪路四段23號(礁溪國民中學教室後宿舍旁),1996-01-01,,本站於2017/11/9進行儀器汰換，於2018/3/23完成驗收。,,
267,236,現存測站,C0R100,尾寮山,Weiliaoshan,1006.0,120.68389,22.83311,屏東縣,三地門鄉口社檢查站車程約2小時(尾寮山瞭望台旁),1992-05-01,,本站於2013/10/10進行儀器汰換，並於2013/12/1完成驗收。,,
268,237,現存測站,C0R341,牡丹,Mudan,230.0,120.79264,22.130035,屏東縣,199縣道23K-23.5K間車城往旭海方向之右側,2019-11-28,,因擴充氣象站，原氣象站(C1R340)，於2019/11/28升級為氣象站，變更站碼為(C0R341)。,C1R340,
270,239,現存測站,C0R580,南州,Nanzhou,10.0,120.50274,22.48591,屏東縣,南州鄉溪南村人和路241號(南州消防分隊),2013-08-01,,,,
271,240,現存測站,C0FA30,梧棲,WUQI,31.7,120.523384,24.256002,臺中市,梧棲區臺灣大道十段2號海港大樓6樓,2022-08-01,,本站站碼於2022/8/1由467770改為C0FA30。資料接收測試中，尚無資料。,467770,
272,241,現存測站,C0Z061,玉里,Yuli,174.0,121.33965,23.3215,花蓮縣,玉里鎮樂合里新民41號(樂合國小),2008-02-20,,原(C0Z060)站因移位，於2008/2/20更變為(C0Z061)站。本站於2017/8/17起進行儀器汰換，於2017/12/1完成驗收。,C0Z060,
274,243,現存測站,C0AI30,三重,Sanchong,26.0,121.500626,25.057327,新北市,三重區環河南路100號,2019-08-02,,原(C0A9I1)站因移位，於2019/8/2變更為(C0AI30)站。,C0A9I1,
276,245,現存測站,C0U870,大礁溪,Dajiaoxi,474.0,121.67505,24.791042,宜蘭縣,礁溪鄉二結村一鄰9-1號(國立宜蘭大學實驗林場),2017-12-01,,原(C1U610)站因移位升氣，於2017/12/1變更為(C0U870)站。,,
277,246,現存測站,C0V720,林園,Linyuan,15.0,120.39451,22.507748,高雄市,林園區林園北路179號(林園區公所),2013-08-01,,,,
278,247,現存測站,C0I540,奇萊稜線,Qilailengxian,3344.0,121.326454,24.109232,南投縣,仁愛鄉奇萊連峰指標6.4K處(奇萊山屋附近),2017-12-28,,,,
279,248,現存測站,C0R350,貓鼻頭,Maobitou,35.0,120.7358,21.921774,屏東縣,恆春鎮(貓鼻頭風景區內),1997-07-01,,本站於2019/08/30進行儀器汰換，於2019/11/28完成驗收。,,
280,249,現存測站,C0R590,里港,Ligang,72.0,120.49459,22.77919,屏東縣,里港鄉永春村中山路104號(里港鄉公所),2013-08-01,,,,
281,250,現存測站,C0FA40,臺中電廠,Taichung?Power Plant,25.0,120.4907,24.2146,臺中市,龍井區龍昌路1號,2022-12-26,,,,
282,251,現存測站,C0AI40,石牌,Shipai,35.0,121.51314,25.115597,臺北市,北投區石牌路一段139號(石牌國中自強樓頂樓),2019-09-10,,原(C0A9B0)站因移位，於2019/9/10變更為(C0AI40)站。,C0A9B0,
283,252,現存測站,C0U860,頭城,Toucheng,5.0,121.8308,24.85323,宜蘭縣,頭城鎮協天路468號(中華電信頭城海纜站內),2017-12-01,,原(C1U860)站因移位升氣，於2017/12/1變更為(C0U860)站。,C1U860,
284,253,現存測站,C0V710,苓雅,LingYa,34.0,120.330666,22.622742,高雄市,苓雅區三多一路162號(苓雅消防分隊),2013-12-01,,,,
285,254,現存測站,C0S690,太麻里,Taimali,522.0,120.98533,22.60902,臺東縣,太麻里鄉(往金針山茶區之半路上),1997-07-01,,本站於2019/3/5起進行儀器汰換，於2019/6/7完成驗收。,,
286,255,現存測站,C0Z080,富源,Fuyuan,298.0,121.37823,23.587643,花蓮縣,光復鄉大豐村9鄰265號(富源國中對面之半山腰上),2012-01-01,,本站於2017/6/19起進行儀器汰換，於2017/12/1完成驗收。,,
287,256,現存測站,C0FA50,霧峰,Wufeng,58.0,120.6995,24.0419,臺中市,霧峰區新生路192號(921地震教育園區內),2023-03-10,,,,
290,259,現存測站,C0SA00,歷坵,Liqiu,466.0,120.89185,22.52097,臺東縣,金峰鄉歷坵產業道路附近山區,2019-07-05,,,,
292,261,現存測站,C0U890,三星,Sanxing,116.0,121.65302,24.66812,宜蘭縣,三星鄉月眉街54號(三星國中),2017-12-01,,原(C1U660)站因移位升氣，於2017/12/1變更為(C0U890)站。,C1U660,
294,263,現存測站,C0U650,玉蘭,Yulan,442.0,121.58706,24.675285,宜蘭縣,大同鄉松羅村鹿場路11號(往松羅山頂瞭望亭旁),1996-01-01,,本站於2017/10/9進行儀器汰換，於2017/12/1完成驗收。,,
295,264,現存測站,C0V740,旗山,Qishan,60.0,120.4836,22.888615,高雄市,旗山區延平一路499號(旗山區公所),2013-08-01,,,,
296,265,現存測站,C0K500,元長,Yuanchang,12.0,120.315025,23.64981,雲林縣,元長鄉長南村仁愛街2號(元長鄉公所),2015-07-03,,,,
297,266,現存測站,C0R130,阿禮,Ali,1040.0,120.743675,22.742908,屏東縣,霧台鄉(屏東事業區第46林班)由山地文化村開車約2小時需徒步轉波站前面,2013-08-01,,原(C1R130)站因擴充為氣象站，於2013/8/1升級為(C0R130)站。,C1R130,
300,269,現存測站,C0SA10,檳榔四格山,Binlangsigeshan,411.0,121.10931,22.810032,臺東縣,卑南鄉檳榔四格山山頂瞭望臺旁,2019-07-05,,,,
302,271,現存測站,C0T790,大禹嶺,Dayuling,2830.0,121.316086,24.186117,花蓮縣,秀林鄉立霧溪事業區67林班地(救國團大禹山莊),1996-01-01,,,,
303,272,現存測站,C0U880,北關,Beiguan,2.0,121.8734,24.9072,宜蘭縣,頭城鎮濱海路三段(北關梗枋漁港北側路邊),2022-09-19,,"原(C1U880)站因擴充為氣象站，於2022/9/19升級為(C0U880)站。
2022/12/26更新海拔高度(8m改為2m)。",C1U880,
304,273,現存測站,C0V730,大寮,Daliao,33.0,120.39571,22.605614,高雄市,大寮區鳳林三路492號(大寮區公所),2013-08-01,,,,
305,274,現存測站,C0K510,水林,Shuilin,10.0,120.24597,23.572924,雲林縣,水林鄉水北村水林路12號(水林鄉公所),2015-07-03,,,,
306,275,現存測站,C0R140,瑪家,Majia,740.0,120.68664,22.682903,屏東縣,瑪家鄉瑪家村4鄰24號(後山),2013-08-01,,原(C1R140)站因擴充為氣象站，於2013/8/1升級為(C0R140)站。,C1R140,
309,278,現存測站,C0SA20,金崙山,Jinlunshan,857.0,120.95966,22.56742,臺東縣,太麻里鄉富山產業道路附近山區(與金峰鄉交界附近),2019-07-05,,,,
310,279,現存測站,C0A860,大坪,Daping,362.0,121.63297,25.165915,新北市,萬里區溪底里香員林6-3號,1995-01-01,,,,
311,280,現存測站,C0V760,橋頭,Qiaotou,30.0,120.30575,22.757807,高雄市,橋頭區隆豐路1號(橋頭區公所),2013-12-01,,,,
312,281,現存測站,C0M700,竹崎,Zhuqi,150.0,120.55551,23.526178,嘉義縣,竹崎鄉竹崎村舊車站79號(竹崎消防分隊),2015-07-03,,,,
313,282,現存測站,C0R150,三地門,Sandimen,105.0,120.639946,22.709888,屏東縣,內埔鄉水門村成功路83號(國立內埔高級農工職業學校內),1992-05-01,,本站於2013/9/10進行儀器汰換，並於2013/12/1完成驗收。,,
316,285,現存測站,C0SA30,都歷,Duli,93.0,121.32364,23.020332,臺東縣,成功鎮新村路25號(東部海岸國家風景區管理處),2019-07-05,,,,
317,286,現存測站,C0V750,路竹,Luzhu,50.0,120.25944,22.854998,高雄市,路竹區國昌路76號(路竹區公所),2013-12-01,,,,
318,287,現存測站,C0A870,五指山,Wujhihshan,685.0,121.60869,25.132153,新北市,汐止區國軍示範公墓旁之復興廣播電台門口外,1995-01-01,,,,
319,288,現存測站,C0M710,東石,Dongshi,15.0,120.15385,23.458927,嘉義縣,東石鄉東石村3號(東石鄉公所),2015-07-03,,,,
320,289,現存測站,C0I110,竹山,Zhushan,161.0,120.688156,23.761225,南投縣,竹山鎮延和里向學街32號(竹山國民小學內),1992-07-01,,,,
321,290,現存測站,C0K530,臺西,Taixi,12.0,120.197556,23.701548,雲林縣,台西鄉中山路110巷38號(臺西消防分隊),2015-07-03,,,,
322,291,現存測站,C0R160,鹽埔,yanpuxinwei,45.0,120.53078,22.739557,屏東縣,屏東縣鹽埔鄉七份路21號(彭厝國小),2013-12-01,,原(C1R160)站於2013/12/1變更為(C0R160)站。,C1R160,
325,294,現存測站,C0G620,芬園,Fenyuan,110.0,120.6213,24.015678,彰化縣,芬園鄉楓坑村大埔崙產業道路上(芬園往臺灣民俗村路上),2011-11-01,,原(C1G620)站因擴充為氣象站，於2011/11/1升級為(C0G620)站。,C1G620,
326,295,現存測站,C0X160,仁德,Rende,26.0,120.25769,22.968258,臺南市,仁德區仁義路432號(仁德消防分隊),2013-04-18,,,,
328,297,現存測站,C0G860,社頭,Shetou,45.0,120.5862,23.897648,彰化縣,社頭鄉社斗路一段258號(社頭國小),2011-11-01,,,,
329,298,現存測站,C0H950,中寮,Zhongliao,192.0,120.7664,23.884447,南投縣,中寮鄉復興村初中巷50號(中寮國中校園內),2011-11-01,,原(C1H950)站因擴充為氣象站，於2011/11/1升級為(C0H950)站。,C1H950,
330,299,現存測站,C0Z100,東華,Donghwa,36.0,121.549835,23.89525,花蓮縣,壽豐鄉大學路二段1號（國立東華大學）,2014-01-01,,本站於2017/3/29起進行儀器汰換，於2017/6/3完成驗收。,,
331,300,現存測站,C0D590,新豐,Sinfong,143.0,120.97721,24.87068,新竹縣,新豐鄉松柏村康和路199號(小叮噹科學主題樂園),2007-10-01,,原(C0C580)站因縣市代碼不符，於2008/2/25重新編碼為(C0D590)站。,C0C580,
332,301,現存測站,C0S700,知本,Jhihben,507.0,121.005646,22.684866,臺東縣,卑南鄉溫泉村(溫泉國小之樂山分校內),1997-07-01,,本站於2019/2/23進行儀器汰換，於2019/6/7完成驗收。,,
333,302,現存測站,C0S940,石寧山,Shiningshan,150.0,121.40664,23.223772,臺東縣,長濱鄉寧埔村石寧山附近山區,2019-07-05,,,,
334,303,現存測站,C0R850,林邊,Linbian,16.0,120.5339,22.4634,屏東縣,林邊鄉竹林村中興路122號,2022-12-26,,,,
336,305,現存測站,C0N010,鯤鯓國小,Kunshen Elementary School,19.0,120.0889,23.1879,臺南市,將軍區6號,2022-12-26,,,,
337,306,現存測站,C0X170,關廟,Guanmiao,50.0,120.3278,22.963017,臺南市,關廟區中正路998號(關廟區公所3樓頂),2013-08-01,,,,
338,307,現存測站,C0X150,安定,Anding,18.0,120.22784,23.102613,臺南市,安定區南安里33-11號(安定消防分隊),2013-04-18,,,,
339,308,現存測站,C0Z330,安通山,Antongshan,488.0,121.348526,23.290728,花蓮縣,玉里鎮安通產業道路附近山區,2018-05-09,,,,
341,310,現存測站,C0H960,草屯,Caotun,120.0,120.68085,23.973673,南投縣,草屯鎮中山里草鞋墩1街8號(草屯鎮公所樓頂),2011-11-01,,原(C1H960)站因擴充為氣象站，於2011/11/1升級為(C0H960)站。,C1H960,
342,311,現存測站,C0G870,芳苑,Fangyuan,12.0,120.32002,23.922302,彰化縣,芳苑鄉仁愛村斗苑路芳苑段211號(芳苑國中),2011-11-01,,,,
343,312,現存測站,C0D360,梅花,Meihua,523.0,121.20856,24.678347,新竹縣,尖石鄉梅花村1鄰11號(梅花國小校園內),1987-06-01,,,,
344,313,現存測站,C0S710,鹿野,Luye,382.0,121.12299,22.917711,臺東縣,鹿野鄉鹿野高台高眺亭公廁東側草地上,1997-07-01,,於2015/1/1短距離位移。本站於2019/3/20起進行儀器汰換，於2019/6/7完成驗收。,,
345,314,現存測站,C0N020,城西,Chengsi,27.0,120.0956,23.0568,臺南市,安南區城西街三段431號,2022-12-26,,,,
346,315,現存測站,C0R620,墾雷,Kenlei,34.0,120.85527,21.900837,屏東縣,恆春鎮燈塔路51巷33號(氣象局墾丁雷達站區內),2016-06-22,,本站於2019/08/31進行儀器汰換，於2019/11/28完成驗收。,,
347,316,現存測站,C0S950,七塊厝,Qikuaicuo,415.0,121.22992,22.954453,臺東縣,東河鄉尚德村七塊厝產業道路附近山區,2019-07-05,,,,
348,317,現存測站,C0R860,鼻頭,Bitou,31.0,120.8979,22.1043,屏東縣,滿州鄉九棚村,2022-12-26,,,,
352,321,現存測站,C0G640,鹿港,Lukang,17.0,120.43048,24.0753,彰化縣,鹿港鎮海埔里顏厝巷67號(行政院退輔會魚殖管理處彰化分場內),1992-07-01,,,,
353,322,現存測站,C0G880,二水,Ershui,92.0,120.6173,23.810741,彰化縣,二水鄉文化村119號(二水國小),2011-11-01,,,,
354,323,現存測站,C0T820,天祥,Tianxiang,550.0,121.495636,24.179598,花蓮縣,秀林鄉立霧溪事業區80林班地(天祥祥德寺),1996-01-01,,本站於2017/9/23起進行儀器汰換，於2017/12/1完成驗收。,,
355,324,現存測站,C0U910,冬山,Dongshan,17.0,121.7937,24.63373,宜蘭縣,冬山鄉冬山路98-5號(冬山消防分隊),2017-12-01,,原(C0U680)站因移位，於2017/12/1變更為(C0U910)站。,C0U680,
356,325,現存測站,C0N030,四草,Sihtsao,2.0,120.1116,23.0235,臺南市,安南區,2022-12-26,,,,
357,326,現存測站,C0S960,香蘭,Xianglan,32.0,120.99338,22.587568,臺東縣,太麻里鄉香蘭村四鄰28號 (香蘭國小),2019-11-28,,,,
358,327,現存測站,C0R870,興海,Singhai,13.0,120.8439,21.9752,屏東縣,滿州鄉港口村13鄰興海路106號,2022-12-26,,,,
360,329,現存測站,C0X190,安平,Anping,10.0,120.15218,22.99316,臺南市,安平區城平路2號(台江國家公園管理處),2013-04-18,,,,
362,331,現存測站,C0ACA0,新莊,Xinzhuang,25.0,121.446754,25.051477,新北市,新莊區中和街193號(榮富國小校園內),2009-12-01,,原(C1ACA0)站因擴充為氣象站，於2009/12/1升級為(C0ACA0)站，站址搬遷至同校行政大樓西側。,C1ACA0,
363,332,現存測站,C0G650,員林,Yuanlin,34.0,120.585594,23.946503,彰化縣,員林市萬年里明倫路2號(明倫國中內),1992-07-01,,本站於2011/3/10進行儀器汰換，於2011/11/1完成驗收。,,
364,333,現存測站,C0G890,伸港,Shenggang,24.0,120.484406,24.148933,彰化縣,伸港鄉新港村和平路60號(新港國小),2011-11-01,,,,
365,334,現存測站,C0S730,綠島,Ludao,110.0,121.47533,22.6672,臺東縣,綠島鄉,1997-07-01,,本站於2019/3/25起進行儀器汰換，於2019/6/7完成驗收。,,
366,335,現存測站,C0U900,內城,Neicheng,63.0,121.68766,24.71813,宜蘭縣,員山鄉內城路545號(內城國民中小學),2017-12-01,,原(C1U630)站因移位升氣並更名，於2017/12/1變更為(C0U900)站。,C1U630,
367,336,現存測站,C0R640,東港,Donggang,21.0,120.44074,22.46247,屏東縣,東港鎮豐漁里豐漁街67號（水產試驗所東港生技研究中心）,2018-08-11,,,,
368,337,現存測站,C0S970,加津林,Jiajinlin,19.0,120.92694,22.41621,臺東縣,大武鄉大竹村14鄰加津林4號(舊高溪派出所),2019-07-05,,,,
369,338,現存測站,C0R880,後壁湖,Houbihu,13.0,120.7457,21.9457,屏東縣,恆春鎮大光里9鄰大光路79之40號,2022-12-26,,,,
370,339,現存測站,C0N040,蘆竹溝,Lujhugou,22.0,120.0961,23.2344,臺南市,北門區蘆竹溝333之11號,2022-12-26,,,,
371,340,現存測站,C0X180,山上,Shanshang,62.0,120.36325,23.0757,臺南市,山上區豐德里隙子口5之1號(中油豐德供油中心2樓頂),2013-04-18,,,,
373,342,現存測站,C0G660,溪湖,Xihu,27.0,120.47912,23.94835,彰化縣,溪湖鎮大竹里彰水路2段725號(湖南國民小學內),2011-11-01,,原(C1G660)站因擴充為氣象站，於2011/11/1升級為(C0G660)站。,C1G660,
374,343,現存測站,C0H990,昆陽,Kunyang,3076.0,121.27364,24.121323,南投縣,仁愛鄉昆陽警察局後方下坡處(太魯閣國家公園)石碑後20公尺,1992-07-01,,本站於2015/8/24起進行儀器汰換，並於2015/12/31完成驗收。,,
375,344,現存測站,C0S740,池上,Chihshang,289.0,121.20947,23.119629,臺東縣,池上鄉新興村104號(退輔會臺東農場內),1997-07-01,,本站於2019/3/22起進行儀器汰換，於2019/6/7完成驗收。,,
376,345,現存測站,C0R650,竹田,Zhutian,29.0,120.54344,22.58486,屏東縣,竹田鄉中正路123號(竹田鄉公所清潔隊),2018-08-11,,,,
377,346,現存測站,C0S980,勝林山,Shenglinshan,903.0,120.8938,22.430439,臺東縣,達仁鄉勝林山山頂停機坪旁(與大武鄉交界附近),2019-07-05,,,,
378,347,現存測站,C0R890,山海,Shanhai,33.0,120.7091,21.9878,屏東縣,恆春鎮山海里山海路2之1號,2022-12-26,,,,
379,348,現存測站,C0N050,蚵寮,Eliao,37.0,120.1104,23.301,臺南市,北門區保吉里雙春里8鄰73-20號,2022-12-26,,,,
380,349,現存測站,C0Z150,吉安光華,Guanghua Ji-an,27.0,121.59515,23.930925,花蓮縣,吉安鄉南濱路一段531號(水資源回收中心),2017-06-03,,,,
383,352,現存測站,C0S750,向陽,Siangyang,2280.0,120.98613,23.248398,臺東縣,海端鄉向陽(公路局向陽工務段圍牆內),1997-07-01,,本站於2019/4/16起進行儀器汰換，於2019/6/7完成驗收。,,
384,353,現存測站,C0R660,枋寮,Fangliao,20.0,120.590645,22.367722,屏東縣,枋寮鄉枋寮村德興路197號(枋寮國小),2019-11-28,,,,
385,354,現存測站,C0S990,山豬窟,Shanzhuku,409.0,120.85737,22.318619,臺東縣,大武鄉南興村山豬窟產業道路附近山區(梅園涼亭旁),2019-07-05,,,,
388,357,現存測站,C0U950,鶯子嶺,Yingziling,1012.0,121.79244,24.89754,宜蘭縣,頭城鎮鶯子嶺通信站區內,2017-12-01,,,,
389,358,現存測站,C0U710,太平山,Taipingshan,1942.0,121.52566,24.505486,宜蘭縣,大同鄉太平山93林班地(林務局路標22.3k處),1996-01-01,,本站於2017/12/13進行儀器汰換，於2018/3/23完成驗收。,,
390,359,現存測站,C0V800,六龜,Liugui,256.0,120.63358,22.997889,高雄市,六龜區民治路9號(六龜消防隊),2013-12-01,,,,
391,360,現存測站,C0S760,紅石,Hongshih,1621.0,121.12622,23.069132,臺東縣,海端鄉紅石(紅石瞭望臺旁),1997-07-01,,本站於2019/4/14起進行儀器汰換，於2019/6/7完成驗收。,,
392,361,現存測站,C0R670,楓港,Fenggang,26.0,120.692154,22.19013,屏東縣,枋山鄉善餘村光復路24號(楓港國小),2019-11-28,,,,
393,362,現存測站,C0F9A0,中竹林,Zhongzhulin,425.0,120.75106,24.103556,臺中市,太平區長龍路中埔二號橋至站址直線距離約1.7km,2011-11-01,,原(C1F9A0)站因擴充為氣象站，於2011/11/1升級為(C0F9A0)站。,C1F9A0,
394,363,現存測站,C0Z170,卓溪,Zhuoxi,194.0,121.3029,23.3443,花蓮縣,卓溪鄉卓溪村中正67號(花蓮縣卓溪鄉公所樓頂),2022-12-20,,"原(C1Z010)站因移位升級，於2017/12/1變更為(C0Z170)站。
2022/11/22舊站遷移(舊地址為卓溪鄉卓溪村中正路65-5號)，站碼不變，並於2022/12/20開始接續提供資料。",C1Z010,
398,367,現存測站,C0AJ20,野柳,YEHLIOU,50.0,121.69002,25.20703,新北市,萬里區野柳村151-1號(野柳守望哨雷達塔),2022-03-09,,,,
400,369,現存測站,C0U940,羅東,Luodong,25.0,121.74934,24.68184,宜蘭縣,羅東鎮羅東運動公園南側(北成路二段停車場旁自行車道入口),2017-12-01,,,,
401,370,現存測站,C0R440,大漢山,Dahanshan,1654.0,120.75318,22.405264,屏東縣,春日鄉大漢山頂,2019-11-28,,因擴充氣象站，原氣象站(C1R440)，於2019/11/28升級為氣象站，變更站碼為(C0R440)。,C1R440,
402,371,現存測站,C0S770,大溪山,Dasishan,375.0,120.94332,22.478476,臺東縣,太麻里鄉多良村(廢棄中華電信轉播站旁),1997-07-01,,本站於2019/3/8起進行儀器汰換，於2019/6/7完成驗收。,,
403,372,現存測站,C0R680,佳樂水,Jialeshui,13.0,120.86163,21.993578,屏東縣,滿州鄉佳樂水風景區內,2019-11-28,,,,
404,373,現存測站,C0Z160,鳳林,Fenglin,124.0,121.45341,23.746115,花蓮縣,鳳林鎮信義路200號(鳳林地政事務所),2017-06-03,,原(C1T930)站因移位及升級，於2017/6/3升級為(C0Z120)站。,C1T930,
405,374,現存測站,C0C660,楊梅,Yangmei,176.0,121.14304,24.912374,桃園市,楊梅區金華街100號(楊心國小),2013-08-01,,,,
406,375,現存測站,C0F930,大甲,Dajia,100.0,120.6404,24.347668,臺中市,大甲區開元路71號(大甲高級工業職業學校內),2011-11-01,,原(C1F930)站因擴充為氣象站，於2011/11/1升級為(C0F930)站。,C1F930,
407,376,現存測站,C0X320,柳營,Liuying,30.0,120.37525,23.253328,臺南市,臺南市柳營區國道3號北上324.7K處,2020-02-05,,,,
408,377,現存測站,C0O980,新市,Xinshi,18.0,120.298195,23.061613,臺南市,新市區永就里53號(番子寮農場),2013-08-01,,原(C1O980)站因擴充為氣象站，於2013/8/1升級為(C0O980)站。,C1O980,
409,378,現存測站,C0UA70,桃源谷,Taoyuangu,547.0,121.88888,24.962606,宜蘭縣,頭城鎮及新北市貢寮區交界之桃源谷附近空地,2018-03-23,,,,
411,380,現存測站,C0F0A0,雪山圈谷,Xueshanjuangu,3587.0,121.236336,24.388594,臺中市,和平區(往雪山主峰路上9.8公里處右邊),2016-07-15,,,,
413,382,現存測站,C0C670,龍潭,Longtan,250.0,121.22139,24.870056,桃園市,龍潭區中興路726號（龍潭消防分隊）,2014-04-01,,,,
414,383,現存測站,C0E850,大河,Dahe,104.0,120.94858,24.618069,苗栗縣,三灣鄉大河村48號(大河派出所),2015-08-04,,,,
415,384,現存測站,C0V370,古亭坑,Gutingkeng,74.0,120.40195,22.893179,高雄市,田寮區古亭里,1992-05-01,,本站因儀器汰換，自2013/8/31起暫停資料提供，並於2013/12/1完成驗收。,,
416,385,現存測站,C0E610,馬都安,Madu-an,850.0,120.93019,24.451271,苗栗縣,泰安鄉錦水村(由泰安開車約2小時瞭望台旁),1990-07-21,,,,
417,386,現存測站,C0X310,七股,Qigu,9.0,120.08625,23.14729,臺南市,七股區鹽埕237-11號(氣象局七股雷達站區內),2016-02-01,,,,
419,388,現存測站,C0O990,媽廟,Mamiao,18.0,120.293526,22.99175,臺南市,歸仁區中正北路3段60號(保西國民小學內),2013-12-01,,原(C1O990)站因擴充為氣象站，於2013/12/1升級為(C0O990)站。,C1O990,
420,389,現存測站,C0UA60,樟樹山,Zhangshushan,566.0,121.78325,24.41393,宜蘭縣,南澳鄉武塔村樟樹山附近山區,2018-03-23,,,,
421,390,現存測站,C0K390,土庫,Tuku,31.0,120.39558,23.67903,雲林縣,土庫鎮建國路41號(土庫消防分隊),2015-07-03,,,,
422,391,現存測站,C0F0B0,石岡,Shigang,311.0,120.77764,24.27606,臺中市,石岡區石岡街6號 (臺中市石岡區衛生所),2016-10-01,,,,
423,392,現存測站,C0AC60,三峽,Sanshia,55.0,121.36973,24.939026,新北市,三峽區復興路238號(三峽國中校園內),2009-10-01,,,,
424,393,現存測站,C0C680,龜山,Guishan,228.0,121.38656,25.02846,桃園市,龜山區文化一路250號(國立體育大學田徑場),2017-04-12,,,,
426,395,現存測站,C0G800,埔鹽,Puyan,15.0,120.43169,24.000395,彰化縣,埔鹽鄉永樂村永樂路600號(永樂國小),2011-11-01,,,,
427,396,現存測站,C0X100,臺南市北區,Beiqu Tainan City,10.0,120.19423,23.010393,臺南市,北區文賢路678號(和緯消防分隊),2013-04-18,,,,
428,397,現存測站,C0UA90,石城,SHIHCHENG,5.0,121.95122,24.980444,宜蘭縣,頭城鎮石城路85號(石城執檢站樓頂),2022-03-09,,,,
430,399,現存測站,C0T9M0,靜浦,Jingpu,92.0,121.495026,23.455168,花蓮縣,豐濱鄉靜浦村活動中心後山上,1997-07-01,,原(C0S720)站因縣市代碼不符，於2008/2/25重新編碼為(C0T9M0)站。本站於2019/4/9起進行儀器汰換，於2019/6/7完成驗收。,C0S720,
432,401,現存測站,C0F0C0,中坑,Zhongkeng,983.0,120.90332,24.248516,臺中市,和平區中坑里中坑段39地號內,2017-06-14,,,,
433,402,現存測站,C0AC70,信義,Xinyi,71.0,121.5646,25.037823,臺北市,信義區市府路1號(台北市政府頂樓),2009-10-01,,,,
435,404,現存測站,C0E870,高鐵苗栗,THSR Miaoli,34.0,120.826096,24.60725,苗栗縣,後龍鎮高鐵三路268號(高鐵苗栗站外),2017-08-01,,,,
436,405,現存測站,C0D540,橫山,Hengshan,227.0,121.11693,24.71116,新竹縣,橫山鄉橫山村橫山段426-6地號上,2007-10-01,,,,
437,406,現存測站,C0G810,埔心,Puxin,26.0,120.52546,23.947634,彰化縣,埔心鄉舊館村員鹿路四段201號(舊館國小),2011-11-01,,,,
438,407,現存測站,C0R800,丹路,Danlu,131.0,120.75099,22.204481,屏東縣,屏東縣獅子鄉丹路一巷1號,2020-04-09,,,,
440,409,現存測站,C0AC80,文山,Wenshan,40.0,121.57573,25.00235,臺北市,文山區木柵路4段159巷14-1號(博嘉國小校園內),2009-12-01,,原(C1AC80)站因擴充為氣象站，於2009/12/1升級為(C0AC80)站。,C1AC80,
441,410,現存測站,C0UA80,大溪漁港,DASI FISHING HARBOR,10.0,121.902954,24.941801,宜蘭縣,頭城鎮大溪里濱海路5段492號(大溪安檢所樓頂),2022-03-09,,,,
442,411,現存測站,C0F0D0,審馬陣,Shenmazhen,3171.0,121.4203,24.381676,臺中市,和平區南湖大山指標16.2K處(審馬陣山附近),2017-12-28,,,,
443,412,現存測站,C0C460,復興,Fuxing,482.0,121.35228,24.820208,桃園市,復興區澤仁里中正路248號(介壽國民中學校園內),2007-10-01,,原(C1C460)站因擴充為氣象站，於2007/10/1升級為(C0C460)站。,C1C460,
444,413,現存測站,C0F970,大坑,Dakeng,145.0,120.72229,24.173141,臺中市,北屯區軍福十三路268號(東山消防分隊),2011-11-01,,原(C1F970)站因擴充為氣象站，於2011/11/1升級為(C0F970)站。,C1F970,
445,414,現存測站,C0D550,雪霸,Xueba,1956.0,121.11605,24.526972,新竹縣,五峰鄉桃山村民石380號(雪霸農場內),2007-10-01,,,,
446,415,現存測站,C0E880,三義,Sanyi,507.0,120.74982,24.40548,苗栗縣,苗栗縣三義鄉130縣道13.5K附近（慈濟山茶園內）,2020-01-07,,,,
447,416,現存測站,C0Z300,東里,Dongli,182.0,121.30547,23.26853,花蓮縣,富里鄉東里村大莊路52號(東里消防分隊),2017-12-01,,,,
448,417,現存測站,C0X120,麻豆,Madou,28.0,120.24861,23.183289,臺南市,麻豆區興國路9號(麻豆消防分隊5樓頂),2013-04-18,,,,
449,418,現存測站,C0G820,田尾,Tianwei,29.0,120.50939,23.901669,彰化縣,田尾鄉中正路二段101號(仁豐國小),2011-11-01,,,,
450,419,現存測站,C0S900,蘭嶼高中,Lanyu High School,27.0,121.51214,22.04909,臺東縣,蘭嶼鄉椰油村37號（蘭嶼高中內）,2018-10-26,,,,
451,420,現存測站,C0R810,內獅,Neishi,25.0,120.64298,22.305063,屏東縣,獅子鄉內獅村1號(內獅國小),2020-04-09,,,,
453,422,現存測站,C0F0E0,南湖圈谷,Nanhuquangu,3557.0,121.444664,24.363714,臺中市,和平區南湖大山指標20K處(南湖主峰東峰岔路附近),2017-12-28,,,,
456,425,現存測站,C0D560,竹東,Zhudong,147.0,121.057884,24.767147,新竹縣,竹東鎮二重國民小學校園內,2008-01-01,,原(C1D560)站因擴充為氣象站，於2008/1/1升級為(C0D560)站。,C1D560,
457,426,現存測站,C0G830,埤頭,Pitou,27.0,120.452805,23.866003,彰化縣,埤頭鄉大湖村大湖路260號(大湖國小),2011-11-01,,,,
458,427,現存測站,C0X110,臺南市南區,Nanqu Tainan City,20.0,120.18838,22.96119,臺南市,南區明興路2號(南區區公所),2013-04-18,,,,
459,428,現存測站,C0S910,蘭嶼燈塔,Lanyu Lighthouse,212.0,121.50312,22.081198,臺東縣,蘭嶼鄉椰油段1-7地號（蘭嶼燈塔旁）,2018-10-26,,,,
460,429,現存測站,C0R820,白鷺,Bailu,588.0,120.66622,22.454275,屏東縣,屏東縣來義鄉白鷺大橋沿白鷺道路5.5公里處,2020-04-09,,,,
461,430,現存測站,C0T9N0,富里,Fuli,261.0,121.249374,23.171638,花蓮縣,富里鄉永安街52號(富里國小),2019-07-05,,,,
464,433,現存測站,C0G840,北斗,Beidou,32.0,120.51422,23.877586,彰化縣,北斗鎮斗苑路二段150號(螺陽國小),2011-11-01,,,,
465,434,現存測站,C0E420,竹南,Jhunan,19.0,120.8889,24.708979,苗栗縣,竹南鎮大埔里仁愛路1092號(竹南鎮大埔國民小學內),1987-06-01,,,,
466,435,現存測站,C0X140,西港,Xigang,17.0,120.20311,23.125608,臺南市,西港區中山路450號(西港消防分隊4樓頂),2013-04-18,,,,
467,436,現存測站,C0Z320,清水林道,Qingshuilindao,646.0,121.18827,23.27125,花蓮縣,卓溪鄉清水林道北側山區(新生段1地號),2018-05-09,,,,
468,437,現存測站,C0C480,桃園,Taoyuan,105.0,121.32317,24.992426,桃園市,桃園區成功路二段144號(桃園高級農工職業學校校園內),2008-01-01,,原(C1C480)站因擴充為氣象站，於2008/1/1升級為(C0C480)站。,C1C480,
469,438,現存測站,C0S920,金峰嘉蘭,Jialan Jinfeng,133.0,120.96082,22.59479,臺東縣,金峰鄉嘉蘭村12鄰665號(金峰鄉嘉蘭村活動中心),2019-07-05,,,,
470,439,現存測站,C0R830,高士,Gaoshi,383.0,120.836784,22.121824,屏東縣,屏東縣牡丹鄉高士社區進水廠水塔頂,2020-04-09,,,,
473,442,現存測站,C0E430,南庄,Nanzhuang,258.0,121.00021,24.601774,苗栗縣,南庄鄉東村文化路3號(南庄國小校園內),1987-06-01,,,,
474,443,現存測站,C0X130,官田,Guantian,27.0,120.31542,23.193216,臺南市,官田區中山路一段132號(官田區公所),2013-04-18,,,,
476,445,現存測站,C0Z310,清水斷崖,Qingshui Cliff,59.0,121.68914,24.218294,花蓮縣,秀林鄉臺9線大清水遊憩區下方空地,2018-03-23,,,,
477,446,現存測站,C0C490,八德,Bade,157.0,121.28329,24.928707,桃園市,八德區興仁里中山路94號(八德國民小學校園內),2011-12-01,,原(C1C490)站因擴充為氣象站，於2011/12/1升級為(C0C490)站。,C1C490,
478,447,現存測站,C0D580,寶山,Baoshan,120.0,121.02519,24.735006,新竹縣,寶山鄉新湖路280號旁,2007-12-01,,,,
479,448,現存測站,C0R600,舊泰武,Jiutaiwu,766.0,120.66495,22.588194,屏東縣,泰武鄉泰武村良武巷101號(舊泰武村老人活動中心),2013-12-01,,,,
480,449,現存測站,C0S930,延平,Yanping,248.0,121.08406,22.90258,臺東縣,臺東縣延平鄉昇平路75號(延平消防分隊),2019-07-05,,,,
481,450,現存測站,C0R840,牡丹池山,Mudanchisahn,536.0,120.841225,22.168388,屏東縣,屏東縣牡丹鄉牡丹池山山頂,2020-04-09,,,,
486,455,現存測站,C0V660,岡山,Gangshan,25.0,120.29496,22.797077,高雄市,岡山區岡山路341號(岡山地政事務所),2013-12-01,,,,
489,458,現存測站,C0A520,山佳,Shanjia,48.0,121.40201,24.974943,新北市,樹林區中山路3段5號(山佳國民小學校園內),1987-06-01,,,,
490,459,現存測站,C0I480,梅峰,Meifeng,2165.0,121.17357,24.085272,南投縣,仁愛鄉大同村仁和路215號(梅峰農場),2016-01-01,,,,
491,460,現存測站,C0K420,西螺,Xiluo,42.0,120.46739,23.800407,雲林縣,西螺鎮公正路211號(西螺消防分隊),2015-07-03,,,,
492,461,現存測站,C0UB10,蘇澳,Suao,28.0,121.8571,24.5969,宜蘭縣,蘇澳鎮港區路1號6樓(蘇澳港行政大樓),2023-04-01,,原(467060)站於2023/04/01起變更站碼為(C0UB10)站。,467060,
495,464,現存測站,C0AH70,松山,Songshan,34.0,121.55042,25.04871,臺北市,松山區敦化北路1號(臺北市松山運動中心),2017-04-26,,因雨量筒較晚驗收完成，2017/04/26至2017/08/17不提供雨量資料。,,
496,465,現存測站,C0F9K0,大安,Da-an,30.0,120.58803,24.34506,臺中市,大安區中庄里中山南路296號(大安國小),2011-11-01,,,,
498,467,現存測站,C0AD00,三芝,Sanzhi,86.0,121.501915,25.258131,新北市,三芝區育英路22號(三芝國小內),2009-11-01,,,,
499,468,現存測站,C0V890,前鎮,Chian Jhen,25.0,120.3117,22.5718,高雄市,前鎮區漁港北二路5號,2022-12-26,,,,
500,469,現存測站,C0I010,廬山,Lushan,1562.0,121.18181,24.033312,南投縣,仁愛鄉精英村富貴路67號前方200公尺(廬山電力公司瞭望台),1992-07-01,,本站於2015/7/30起進行儀器汰換，並於2015/12/31完成驗收。,,
501,470,現存測站,C0K430,褒忠,Baozhong,30.0,120.303635,23.690939,雲林縣,褒忠鄉中正路451號(褒忠鄉公所),2015-07-03,,,,
502,471,現存測站,C0A530,坪林,Pinglin,300.0,121.70975,24.938183,新北市,坪林區,1987-06-01,,,,
503,472,現存測站,C0V650,彌陀,Mituo,28.0,120.24636,22.783806,高雄市,彌陀區中正北路7號(彌陀消防分隊),2013-12-01,,,,
504,473,現存測站,C0A770,科教館,Science Education Center ,60.0,121.51651,25.096355,臺北市,士林區士商路189號（士林科教館樓頂）,2021-12-13,,,,
505,474,現存測站,C0M850,表湖,Biaohu,695.0,120.64166,23.24186,嘉義縣,大埔鄉溪頭段1地號,2018-02-14,,,,
506,475,現存測站,C0I490,萬大林道,Wandalindao,1601.0,121.09141,23.928228,南投縣,仁愛鄉曲冰段(萬大林道約7.2k附近高地),2016-01-01,,,,
508,477,現存測站,C0C700,中壢,Zhongli,151.0,121.25638,24.977661,桃園市,中壢區成章四街120號(內壢高中樓頂),2017-12-27,,,,
509,478,現存測站,C0UB00,淡江大學蘭陽校園,TAMKANG LANYANG CAMPUS,379.0,121.730385,24.823238,宜蘭縣,礁溪鄉林尾路180號（淡江大學蘭陽校園內）,2022-01-05,,,,
510,479,現存測站,C0AH80,深坑,Shenkeng,68.0,121.62833,25.002703,新北市,深坑區文山路1段35號(深坑消防分隊樓頂),2017-08-02,,,,
511,480,現存測站,C0F9L0,后里,Houli,253.0,120.72973,24.310436,臺中市,后里區甲后路110號(后里國小),2011-11-01,,,,
513,482,現存測站,C0V680,仁武,Renwu,40.0,120.347725,22.701082,高雄市,仁武區中正路133號(仁武區公所),2013-12-01,,,,
515,484,現存測站,C0C720,竹圍,JHUWEI,21.0,121.23982,25.112692,桃園市,大園區沙崙段沙崙小號00719-000建號(竹圍第一機動巡邏隊樓頂),2022-03-09,,,,
516,485,現存測站,C0V440,鳳山,Fengshan,27.0,120.356125,22.646652,高雄市,鳳山區文山路園藝巷4號（鳳山熱帶園藝試驗分所）,2013-12-01,,原(C1V440)站因移位及擴充為氣象，於2013/12/1升級為(C0V440)站。,C1V440,
518,487,現存測站,C0K440,二崙,Erlun,35.0,120.40894,23.772797,雲林縣,二崙鄉中正路80號(二崙消防分隊),2016-01-01,,,,
519,488,現存測站,C0A540,四堵,Sihdu,401.0,121.745735,24.8926,新北市,坪林區碧湖(北宜路旁之碧湖橋道路上行約10分鐘),1987-06-01,,,,
520,489,現存測站,C0M860,新美,Shinmei,578.0,120.68317,23.338017,嘉義縣,嘉義縣阿里山鄉新美村78號,2020-03-31,,,,
521,490,現存測站,C0AD10,八里,Bali,27.0,121.403946,25.150211,新北市,八里區中山路二段338號(八里國小內),2009-11-01,,,,
522,491,現存測站,C0C710,大溪永福,Yongfu Daxi,143.0,121.324974,24.892937,桃園市,大溪區信義路1165號（永福國小）,2018-12-26,,,,
524,493,現存測站,C0F9M0,豐原,Fengyuan,230.0,120.720695,24.254322,臺中市,豐原區豐榮里12鄰新生北路155號(豐原國小),2011-11-01,,,,
525,494,現存測站,C0AH90,福山植物園,Fushan Botanical Garden,660.0,121.58135,24.760717,新北市,烏來區福山植物園內(生活植物區之民俗植物區觀測坪),2018-03-23,,,,
526,495,現存測站,C0C730,中大臨海站,JHONGDA COASTAL STATION,5.0,121.00858,24.966125,桃園市,新屋區蚵殼港段深圳小段52-41號土地(中央大學臨海工作站),2022-03-09,,,,
528,497,現存測站,C0O810,曾文,Cengwen,161.0,120.49733,23.21968,臺南市,楠西區曾文新村(曾文水庫管理局內),1988-12-01,,本站於 2013/5/9 進行儀器汰換，並於2013/8/1完成驗收。,,
529,498,現存測站,C0K450,大埤,Dapi,35.0,120.43153,23.646074,雲林縣,大埤鄉中山路8號(大埤鄉公所),2015-07-03,,,,
530,499,現存測站,C0A550,泰平,Taiping,422.0,121.82371,24.971197,新北市,雙溪區泰平里8鄰大平路43號(泰平國小分校附近),1987-06-01,,,,
531,500,現存測站,C0UB20,壯圍,Jhuangwei,30.0,121.8163,24.7359,宜蘭縣,壯圍鄉紅葉路69號,2022-12-26,,,,
532,501,現存測站,C0F9N0,大里,Dali,75.0,120.70138,24.092464,臺中市,大里區文化街120號(塗城國小),2011-11-01,,,,
533,502,現存測站,C0C740,觀音工業區,GUANYIN INDUSTRIAL AREA,5.3,121.11485,25.064764,桃園市,觀音區經建七路5號(觀音工業區汙水處理廠迴流汙泥站機房樓頂),2022-03-09,,,,
534,503,現存測站,C0E920,通霄漁港,TONGSIAO FISHING HARBOR,20.0,120.673874,24.498589,苗栗縣,通霄鎮漁港路69號(通霄安檢所樓頂),2022-03-09,,,,
535,504,現存測站,C0K460,斗南,Dounan,60.0,120.478355,23.678734,雲林縣,斗南鎮延平路二段266號(斗南鎮停一立體停車場),2015-07-03,,,,
536,505,現存測站,C0A560,福山,Fushan,405.0,121.50281,24.776203,新北市,烏來區福山里李茂岸八號(福山國小旁),1987-06-01,,,,
537,506,現存測站,C0M880,好美里,Haomeili,27.0,120.138,23.3364,嘉義縣,布袋鎮好美里106號,2022-12-26,,,,
538,507,現存測站,C0M640,中埔,Zhongpu,155.0,120.5229,23.42538,嘉義縣,中埔鄉中埔村128號(中埔鄉公所),2015-07-03,,,,
539,508,現存測站,C0F9O0,潭子,Tanzi,175.0,120.70393,24.213106,臺中市,潭子區中山路二段435號(潭子國小),2011-11-01,,,,
541,510,現存測站,C0E910,海埔,HAIPU,25.0,120.77244,24.648767,苗栗縣,後龍鎮海埔125之15號(外埔安檢所樓頂),2022-03-09,,,,
542,511,現存測站,C0AD30,蘆洲,Lujhou,20.0,121.47233,25.086594,新北市,蘆洲區三民路96號(三民高中內),2009-11-01,,,,
545,514,現存測站,C0C750,新興坑尾,Sinsingkengwei,72.0,121.0971,25.0061,桃園市,觀音區文化路石橋段453號,2022-12-26,,,,
546,515,現存測站,C0V690,鼓山,Gushan,30.0,120.27557,22.623325,高雄市,鼓山區臨海一路61-1號(鼓山消防分隊),2013-12-01,,,,
547,516,現存測站,C0F9Q0,外埔,Waipu,149.0,120.70569,24.347816,臺中市,外埔區土城里土城西路55號(安定國小),2011-11-01,,,,
548,517,現存測站,C0V450,鳳森,Fengsen,51.0,120.39259,22.545065,高雄市,小港區水庫段96-1地號（鳳山給水廠內）,2013-12-01,,原(C1V451)站因擴充為氣象站，於2013/12/1升級為(C0V450)站。,C1V451,
549,518,現存測站,C0E930,龍鳳,LONGFONG,26.0,120.85912,24.700033,苗栗縣,竹南鎮龍鳳里龍江街359巷5號(龍鳳安檢所樓頂),2022-03-09,,,,
551,520,現存測站,C0V210,復興,Fuxing,734.0,120.80609,23.222403,高雄市,桃源區復興里復興巷1鄰15號,2013-04-18,,原(C1V210)站因擴充為氣象站，於2013/4/18升級為(C0V210)站。,C1V210,
552,521,現存測站,C0A570,桶後,Tonghou,360.0,121.59799,24.848223,新北市,烏來區后桶街49號孝義里5-6k處路旁,1987-06-01,,,,
553,522,現存測站,C0M650,朴子,Puzi,20.0,120.23902,23.43463,嘉義縣,朴子市竹村里36號(竹村國小),2015-07-03,,,,
554,523,現存測站,C0O830,北寮,Beiliao,127.0,120.49501,23.079561,臺南市,南化區北寮里48-4號,2013-04-18,,原(C1O830)站因擴充為氣象站，於2013/4/18升級為(C0O830)站。,C1O830,
555,524,現存測站,C0M410,馬頭山,Matoushan,245.0,120.582016,23.324362,嘉義縣,大埔鄉永樂村1鄰內灣仔2號,1988-12-01,,本站於2013/3/21 進行儀器汰換，並於2013/8/1完成驗收。,,
556,525,現存測站,C0K470,林內,Linnei,97.0,120.60964,23.748674,雲林縣,林內鄉中正路685號(林內消防分隊),2016-01-01,,,,
558,527,現存測站,C0F9P0,清水,Qingshui,26.0,120.56224,24.312298,臺中市,清水區護岸路37號(高美國小),2011-11-01,,,,
559,528,現存測站,C0AD40,土城,Tucheng,32.0,121.44517,24.973207,新北市,土城區金城路一段90號(新北市政府消防局土城分隊大樓樓頂),2009-11-01,,,,
561,530,現存測站,C0F9R0,龍井,Longjing,20.0,120.52897,24.184536,臺中市,龍井區西里龍門路51號(龍井國小),2011-11-01,,,,
562,531,現存測站,C0K240,草嶺,Caoling,1132.0,120.69346,23.59555,雲林縣,古坑鄉草嶺村龍頭,1992-07-01,,,,
563,532,現存測站,C0M660,溪口,Xikou,40.0,120.40357,23.604132,嘉義縣,溪口鄉中正東路103號(溪口國中學生活動中心),2015-07-03,,,,
564,533,現存測站,C0O840,王爺宮,Wangyegong,134.0,120.40085,23.222063,臺南市,六甲區王爺里24號（六甲國小湖東分校）,2013-12-01,,原(C1O840)站因觀測條件不佳及擴充為氣象站，於2013/12/1升級為(C0O840)站。,C1O840,
565,534,現存測站,C0K480,莿桐,Citong,56.0,120.50237,23.761192,雲林縣,莿桐鄉和平路53號(莿桐鄉公所),2016-01-01,,,,
568,537,現存測站,C0AD50,鶯歌,Yingge,84.0,121.34629,24.951532,新北市,鶯歌區尖山埔路106號(鶯歌國小內),2009-11-01,,,,
570,539,現存測站,C0F9S0,烏日,Wuri,43.0,120.6241,24.107058,臺中市,烏日區中山路二段196號(烏日國小),2011-11-01,,,,
572,541,現存測站,C0M670,大林,Dalin,43.0,120.45841,23.600616,嘉義縣,大林鎮新興街110號(大林地政事務所),2015-07-03,,,,
573,542,現存測站,C0K250,崙背,Lunbei,12.0,120.318924,23.75555,雲林縣,崙背鄉阿勸村阿勸農場(阿勸段487號),2016-01-01,,原(C1K250)站因擴充為氣象站，於2015/6/8升級為(C0K250)站。,C1K250,
575,544,現存測站,C0AJ30,淡水觀海,DANSHUEI GUANHAI,22.0,121.408615,25.184591,新北市,淡水區觀海路251號(淡水第2海巡隊樓頂),2022-03-09,,,,
577,546,現存測站,C0U970,大福,Dafu,7.0,121.81389,24.80064,宜蘭縣,壯圍鄉大福路一段62巷26號(大福國小),2017-12-01,,,,
578,547,現存測站,C0V820,小林,Xiaolin,441.0,120.63325,23.148409,高雄市,甲仙區五里路24-2號（小林國小）,2018-12-20,,,,
579,548,現存測站,C0R690,墾丁,Kenting,348.0,120.81027,21.966757,屏東縣,恆春鎮墾丁森林遊樂區林業試驗所觀測坪,2019-11-28,,,,
580,549,現存測站,C0Z190,富世,Fushi,62.0,121.6297,24.14743,花蓮縣,秀林鄉富世村127號(富世國小校園內),2017-12-01,,原(C0T9C0)站因移位，於2017/12/1變更為(C0Z190)站。,C0T9C,
583,552,現存測站,C0AH00,汐止,Xizhi,38.0,121.658775,25.066881,新北市,汐止區大同路二段394號(汐止國中),2011-09-01,,,,
585,554,現存測站,C0AJ40,石門,SHIMEN,154.0,121.6012,25.273672,新北市,石門區草里里草埔尾5號(黃金海岸高爾夫球場),2022-03-09,,,,
586,555,現存測站,C0T870,鯉魚潭,Liyutan,135.0,121.50894,23.935638,花蓮縣,壽豐鄉池南村池南路一段8號(鯉魚潭風景區旁),1996-01-01,,本站於2017/4/7起進行儀器汰換，於2017/6/3完成驗收。,,
587,556,現存測站,C0U960,翠峰湖,Cuifenghu,1885.0,121.60805,24.510857,宜蘭縣,大同鄉太平山翠峰湖停車場木棧道旁,2018-03-23,,,,
588,557,現存測站,C0I410,名間,Mingjian,180.0,120.70145,23.837053,南投縣,名間鄉董門巷2號(名間鄉立體停車場),2016-01-01,,,,
590,559,現存測站,C0U720,南山,Nanshan,1260.0,121.38167,24.43742,宜蘭縣,大同鄉南山村4鄰埤南巷31-3號(南山國民小學內),2018-03-23,,原(C1U720)站因擴充為氣象站，於2018/3/23升級為(C0U720)站。,C1U720,
591,560,現存測站,C0V810,左營,Zuoying,32.0,120.28491,22.67491,高雄市,左營區左營大路1號(高雄市立海青高級工商職業學校資訊大樓樓頂),2015-09-21,,,,
593,562,現存測站,C0A920,富貴角,Fugueijiao,196.0,121.565254,25.263783,新北市,石門區山溪里10鄰九芎林13號旁(石門國小山溪分班附近),1995-01-01,,,,
594,563,現存測站,C0R220,潮州,Chaojhou,23.0,120.54,22.53436,屏東縣,潮州鎮光春路290號(屏東縣立光春國民中學內),1992-05-01,,本站於2013/9/10進行儀器汰換，並於2013/12/1完成驗收。,,
595,564,現存測站,C0S790,金崙,Jinlun,236.0,120.96687,22.538122,臺東縣,太麻里鄉金崙段0304-1地號,2004-06-01,,本站於2019/2/26起進行儀器汰換，於2019/6/7完成驗收。,,
597,566,現存測站,C0Z180,新城,Xincheng,34.0,121.60454,24.03946,花蓮縣,新城鄉大漢村光復路570號(新城鄉公所),2017-12-01,,原(C0T841)站因移位，於2017/12/1更變為(C0Z180)站。,C0T841,
598,567,現存測站,C0AH10,永和,Yonghe,30.0,121.50811,25.01125,新北市,永和區永平路205號(永平高中校園內),2014-01-01,,,,
599,568,現存測站,C0K600,箔子寮,Bozihliao,14.0,120.14,23.6197,雲林縣,口湖鄉漁港路370號,2022-12-26,,,,
600,569,現存測站,C0AJ50,水湳洞,SHUINANDONG,30.0,121.862236,25.123695,新北市,瑞芳區水湳洞段00197-000建號(水湳洞犬區隊),2022-03-09,,,,
601,570,現存測站,C0U990,員山,Yuanshan,31.0,121.72247,24.74435,宜蘭縣,員山鄉員山村復興路39號(員山國小),2017-12-01,,,,
602,571,現存測站,C0U750,龜山島,Gueishandao,398.0,121.95313,24.841667,宜蘭縣,頭城鎮龜山島山頂401高地觀景台,2002-09-13,,本站為觀光局所設，交由本局管理。本站於2017/11/24進行儀器汰換，於2018/3/23完成驗收。,,
603,572,現存測站,C0V840,鳳鼻頭,Fongbitou,35.0,120.3591,22.5083,高雄市,小港區南星路107號,2022-12-26,,,,
604,573,現存測站,C0I420,國姓,Guoxing,305.0,120.85507,24.037804,南投縣,國姓鄉民族街40號(國姓鄉老人文康活動中心),2016-01-01,,,,
606,575,現存測站,C0A931,三和,Sanhe,216.0,121.59524,25.233152,新北市,金山區三和國小兩湖分校,2014-04-01,,原(C0A930)站因移位，於2014/4/1更變為(C0A931)站。,C0A930,
608,577,現存測站,C0R470,高樹,Gaoshu,103.0,120.60081,22.82639,屏東縣,高樹鄉興中路330號(高樹圖書館),2013-08-01,,,,
612,581,現存測站,C0AJ60,六塊厝,Lioukuaitsuo,13.0,121.4481,25.24,新北市,淡水區,2022-12-26,,,,
613,582,現存測站,C0U980,坪林石牌,Shipai Pinglin,573.0,121.77396,24.86478,宜蘭縣,頭城鎮與新北市坪林區交界附近之國有林班地(位於坪林石牌附近山區),2017-12-01,,,,
614,583,現存測站,C0A940,金山,Jinshan,49.0,121.64397,25.223627,新北市,金山區中興段404地號(磺港社區活動中心內),1995-01-01,,,,
615,584,現存測站,C0R240,來義,Laiyi,87.0,120.625114,22.527306,屏東縣,萬巒鄉新隆路64號萬巒農場（佳佐段180號）,2013-12-01,,原(C1R240)站因擴充為氣象站，於2013/12/1升級為(C0R240)站。,C1R240,
616,585,現存測站,C0R480,長治,Changzhi,57.0,120.542625,22.693129,屏東縣,長治鄉德成村中興路572-1號(長治消防分隊),2013-08-01,,,,
618,587,現存測站,C0M800,茶山,Chashan,440.0,120.664764,23.299074,嘉義縣,阿里山鄉茶山路62號之1(茶山村衛生室),2016-01-01,,,,
619,588,現存測站,C0AH30,五分山,Wufengshan,755.0,121.78079,25.07125,新北市,瑞芳區靜安路四段1巷1號,2016-01-01,,,,
620,589,現存測站,C0U770,南澳,Nanao,5.0,121.81022,24.44935,宜蘭縣,南澳鄉中央氣象局地震中心系統維護課之南澳地震站,2005-10-01,,本站於2017/10/27進行儀器汰換，於2017/12/1完成驗收。,,
621,590,現存測站,C0V860,南寮,Nanliao,10.0,120.2339,22.7616,高雄市,彌陀區南寮里漁港1街62號,2022-12-26,,,,
622,591,現存測站,C0V620,永安,Yong'an,18.0,120.236855,22.82315,高雄市,永安區永安路32號(永安消防分隊),2013-12-01,,,,
623,592,現存測站,C0A950,鼻頭角,Bitoujiao,60.0,121.92337,25.129036,新北市,瑞芳區鼻頭角燈塔旁,1995-01-01,,,,
624,593,現存測站,C0H9A0,神木村,Shenmu Village,1595.0,120.843666,23.532742,南投縣,信義鄉神木村神木工作分站後方山坡上(對高岳營林區29林班地444號土地),1999-02-01,,本站於2015/9/21起進行儀器汰換，並於2015/12/31完成驗收。,,
625,594,現存測站,C0AJ70,田寮,Tianliao,21.0,121.4886,25.2698,新北市,三芝區古庄里83之1號,2022-12-26,,,,
626,595,現存測站,C0R490,九如,Jiuru,49.0,120.4905,22.7405,屏東縣,九如鄉九如路二段416號(九如鄉公所),2013-08-01,,,,
629,598,現存測站,C0AH40,平等,Pingdeng,426.0,121.57709,25.129143,臺北市,士林區平菁街101號(平等國小),2016-08-01,,,,
631,600,現存測站,C0A970,三貂角,Sandiaojiao,96.0,122.00206,25.007607,新北市,貢寮區三貂角燈塔旁,1996-01-01,,本站於2017/10/23進行儀器汰換，於2017/12/1完成驗收。,,
632,601,現存測站,C0U760,東澳,Dong-ao,22.0,121.83318,24.52196,宜蘭縣,南澳鄉東岳村蘇花路三段209號(東澳國小校園內),2004-06-01,,本站於2017/12/19進行儀器汰換，於2018/3/23完成驗收。,,
633,602,現存測站,C0M810,里佳,Lijia,1354.0,120.716644,23.389126,嘉義縣,阿里山鄉里佳村,2016-01-01,,,,
634,603,現存測站,C0U520,雙連埤,Shuanglianpi,517.0,121.641304,24.753033,宜蘭縣,員山鄉雙連埤地區(需徒步20分鐘),2010-07-01,,原(C1U521)站因擴充為氣象站，於2010/7/1升級為(C0U520)站，於2017/12/26進行儀器汰換，於2018/3/23完成驗收。,C1U521,
635,604,現存測站,C0V850,蚵仔寮,Kezailiao,22.0,120.2527,22.7256,高雄市,梓官區信蚵里廣澤路100號,2022-12-26,,,,
636,605,現存測站,C0V610,梓官,Ziguan,22.0,120.26721,22.760557,高雄市,梓官區梓官路258號(梓官區公所),2013-12-01,,,,
637,606,現存測站,C0R260,春日,Chunri,76.0,120.6283,22.370361,屏東縣,春日鄉鄉公所資源回收場旁,2013-12-01,,原(C1R260)站因擴充為氣象站，於2013/12/1升級為(C0R260)站。,C1R260,
638,607,現存測站,C0AJ80,板橋,Banchiao,38.0,121.4489,25.0107,新北市,板橋區僑中一街1號,2023-01-03,,配合板橋有人站遷移，2023/01/03上午11時開始自動觀測。,,
644,613,現存測站,C0V880,興達,Singda,19.0,120.2127,22.8778,高雄市,茄萣區順漁路100號,2022-12-26,,,,
645,614,現存測站,C0V640,湖內,Hunei,35.0,120.2445,22.887138,高雄市,湖內區中山路一段290之1號(湖街派出所),2013-12-01,,,,
646,615,現存測站,C0I460,南投,Nantou,110.0,120.68733,23.911469,南投縣,南投市龍泉里玉井街5號(南投市公所樓頂),2015-09-21,,,,
647,616,現存測站,C0A980,社子,Shezih,11.0,121.46968,25.109509,臺北市,士林區延平北路九段212號(臺北海洋科技大學內),1997-12-01,,,,
648,617,現存測站,C0M820,達邦,Dabang,980.0,120.74952,23.453995,嘉義縣,阿里山鄉達邦村21號(鄒族自然與文化中心),2016-01-01,,,,
649,618,現存測站,C0V400,阿公店,Agongdian,56.0,120.35553,22.804193,高雄市,燕巢區西燕里工程路1號（阿公店水庫內）,2013-12-01,,原(C1V400)站因擴充為氣象站，於2013/12/1升級為(C0V400)站。,C1V400,
650,619,現存測站,C0K400,斗六,Douliu,65.0,120.54113,23.720583,雲林縣,斗六市鎮北路345-1號(斗六消防分隊),2015-07-03,,,,
651,620,現存測站,C0H9C0,合歡山,Hehuan Mountain,3402.0,121.272545,24.143442,南投縣,仁愛鄉(近合歡山三角點，由松雪樓開車約15分鐘，大甲溪事業區第81林班),2008-02-25,,原(C0F950)站因縣市代碼不符，於2008/2/25重新編碼為(C0H9C0)站。,C0F950,
652,621,現存測站,C0AH50,林口,Linkou,275.0,121.38084,25.072182,新北市,林口區仁愛路二段173號(林口高中內),2017-01-10,,,,
653,622,現存測站,C0R270,琉球嶼,Liouciouyu,51.0,120.362236,22.332245,屏東縣,琉球鄉天台段596及597地號,1997-07-01,,本站於2013/9/26進行儀器汰換，並於2013/12/1完成驗收。,,
655,624,現存測站,C0AJ90,澳底,AODI,23.0,121.9253,25.0552,新北市,貢寮區真理里延平街10號(澳底國小),2023-06-16,,原(C0AJ10)站因移位，於2023/06/16變更為(C0AJ90)站。,C0A910,
657,626,現存測站,C0F9I0,神岡,Shengang,194.0,120.65832,24.272482,臺中市,神岡區三民路639號(圳堵國小校園南側大樓屋頂平台),2011-11-01,,原(C1F9I0)站因擴充為氣象站，於2011/11/1升級為(C0F9I0)站。,C1F9I0,
658,627,現存測站,C0U780,五結,Wujie,15.0,121.79794,24.68637,宜蘭縣,五結鄉五結中路二段88號(五結國小),2010-07-01,,本站於2017/10/13進行儀器汰換，於2017/12/1完成驗收。,,
659,628,現存測站,C0V870,文安,Wunan,23.0,120.2164,22.8025,高雄市,彌陀區舊港橫路87號,2022-12-26,,,,
660,629,現存測站,C0V630,茄萣,Qieding,19.0,120.18261,22.906643,高雄市,茄萣區濱海路四段27號(茄萣區公所),2013-12-01,,,,
661,630,現存測站,C0K410,北港,Beigang,20.0,120.2928,23.573957,雲林縣,北港鎮大同路565號(北港消防分隊),2015-07-03,,,,
663,632,現存測站,C0R280,檳榔,Binlang,242.0,120.83678,22.076078,屏東縣,滿州鄉長樂村大公路14號(往南仁山方向),1997-07-01,,本站於2019/09/19進行儀器汰換，於2019/11/28完成驗收。,,
